[
{"Product":"NFS","Year":"2021","Month":"July","State":"Andaman & Nicobar Islands","District":"South Andaman","Latitude":"11.8311681","Longitude":"92.6586401","Volume":"0.13"},
{"Product":"NFS","Year":"2021","Month":"July","State":"Andaman & Nicobar Islands","District":"North And Middle Andaman","Latitude":"12.6518832","Longitude":"92.8976254","Volume":"0.01"},
{"Product":"NFS","Year":"2021","Month":"July","State":"Andaman & Nicobar Islands","District":"Nicobar","Latitude":"8.0011561","Longitude":"93.3227132","Volume":"0.01"},
{"Product":"NFS","Year":"2021","Month":"July","State":"Andhra Pradesh","District":"Visakhapatnam","Latitude":"17.6868159","Longitude":"83.2184815","Volume":"2.45"},
{"Product":"NFS","Year":"2021","Month":"July","State":"Andhra Pradesh","District":"Krishna","Latitude":"16.6099914","Longitude":"80.7214417","Volume":"1.85"},
{"Product":"NFS","Year":"2021","Month":"July","State":"Andhra Pradesh","District":"Chittoor","Latitude":"13.217176","Longitude":"79.1003289","Volume":"1.83"},
{"Product":"NFS","Year":"2021","Month":"July","State":"Andhra Pradesh","District":"East Godavari","Latitude":"17.32125","Longitude":"82.0407137","Volume":"1.67"},
{"Product":"NFS","Year":"2021","Month":"July","State":"Andhra Pradesh","District":"Guntur","Latitude":"16.3066525","Longitude":"80.4365402","Volume":"1.65"},
{"Product":"NFS","Year":"2021","Month":"July","State":"Andhra Pradesh","District":"Rest of locations","Latitude":"15.9128998","Longitude":"79.7399875","Volume":"7.43"},
{"Product":"NFS","Year":"2021","Month":"July","State":"Arunachal Pradesh","District":"Papum Pare","Latitude":"27.1719019","Longitude":"93.7029002","Volume":"0.12"},
{"Product":"NFS","Year":"2021","Month":"July","State":"Arunachal Pradesh","District":"East Siang","Latitude":"28.1097051","Longitude":"95.1432068","Volume":"0.03"},
{"Product":"NFS","Year":"2021","Month":"July","State":"Arunachal Pradesh","District":"Lower Subansiri","Latitude":"27.6169349","Longitude":"93.8391556999999","Volume":"0.03"},
{"Product":"NFS","Year":"2021","Month":"July","State":"Arunachal Pradesh","District":"Upper Subansiri","Latitude":"27.786802","Longitude":"94.3359634999999","Volume":"0.02"},
{"Product":"NFS","Year":"2021","Month":"July","State":"Arunachal Pradesh","District":"Lohit","Latitude":"27.9039651","Longitude":"96.1739116","Volume":"0.02"},
{"Product":"NFS","Year":"2021","Month":"July","State":"Arunachal Pradesh","District":"Rest of locations","Latitude":"28.2179994","Longitude":"94.7277528","Volume":"0.09"},
{"Product":"NFS","Year":"2021","Month":"July","State":"Assam","District":"Kamrup","Latitude":"26.3160819","Longitude":"91.5983959","Volume":"1.56"},
{"Product":"NFS","Year":"2021","Month":"July","State":"Assam","District":"Cachar","Latitude":"24.7821253","Longitude":"92.8577105","Volume":"0.46"},
{"Product":"NFS","Year":"2021","Month":"July","State":"Assam","District":"Dibrugarh","Latitude":"27.4728327","Longitude":"94.9119621","Volume":"0.37"},
{"Product":"NFS","Year":"2021","Month":"July","State":"Assam","District":"Nagaon","Latitude":"26.348009","Longitude":"92.6838111","Volume":"0.33"},
{"Product":"NFS","Year":"2021","Month":"July","State":"Assam","District":"Tinsukia","Latitude":"27.4885539","Longitude":"95.355758","Volume":"0.3"},
{"Product":"NFS","Year":"2021","Month":"July","State":"Assam","District":"Rest of locations","Latitude":"26.49462","Longitude":"92.894335","Volume":"3.35"},
{"Product":"NFS","Year":"2021","Month":"July","State":"Bihar","District":"Patna","Latitude":"25.5940947","Longitude":"85.1375645","Volume":"2.07"},
{"Product":"NFS","Year":"2021","Month":"July","State":"Bihar","District":"Muzaffarpur","Latitude":"26.1196607","Longitude":"85.390982","Volume":"0.8"},
{"Product":"NFS","Year":"2021","Month":"July","State":"Bihar","District":"West Champaran","Latitude":"27.1543104","Longitude":"84.3542049","Volume":"0.6"},
{"Product":"NFS","Year":"2021","Month":"July","State":"Bihar","District":"East Champaran","Latitude":"26.6098139","Longitude":"84.8567932","Volume":"0.59"},
{"Product":"NFS","Year":"2021","Month":"July","State":"Bihar","District":"Saran","Latitude":"25.8559698","Longitude":"84.8567932","Volume":"0.56"},
{"Product":"NFS","Year":"2021","Month":"July","State":"Bihar","District":"Rest of locations","Latitude":"24.8455266","Longitude":"85.1476264","Volume":"9.07"},
{"Product":"NFS","Year":"2021","Month":"July","State":"Chandigarh","District":"Chandigarh","Latitude":"30.7333148","Longitude":"76.7794179","Volume":"0.92"},
{"Product":"NFS","Year":"2021","Month":"July","State":"Chattisgarh","District":"Raipur","Latitude":"21.2513844","Longitude":"81.6296413","Volume":"1.57"},
{"Product":"NFS","Year":"2021","Month":"July","State":"Chattisgarh","District":"Durg","Latitude":"21.1904494","Longitude":"81.2849169","Volume":"1.01"},
{"Product":"NFS","Year":"2021","Month":"July","State":"Chattisgarh","District":"Bilaspur(CGH)","Latitude":"22.070343","Longitude":"82.1377574","Volume":"0.58"},
{"Product":"NFS","Year":"2021","Month":"July","State":"Chattisgarh","District":"Rajnandgaon","Latitude":"21.0976046","Longitude":"81.0337066","Volume":"0.37"},
{"Product":"NFS","Year":"2021","Month":"July","State":"Chattisgarh","District":"Korba","Latitude":"22.3594501","Longitude":"82.7500594999999","Volume":"0.33"},
{"Product":"NFS","Year":"2021","Month":"July","State":"Chattisgarh","District":"Rest of locations","Latitude":"21.2786567","Longitude":"81.8661442","Volume":"2.2"},
{"Product":"NFS","Year":"2021","Month":"July","State":"Dadra & Nagar Haveli","District":"Dadra & Nagar Haveli","Latitude":"20.1808672","Longitude":"73.0169135","Volume":"0.05"},
{"Product":"NFS","Year":"2021","Month":"July","State":"Daman & Diu","District":"Daman","Latitude":"20.3973736","Longitude":"72.8327991","Volume":"0.23"},
{"Product":"NFS","Year":"2021","Month":"July","State":"Daman & Diu","District":"Diu","Latitude":"20.7144094","Longitude":"70.9873719","Volume":"0.02"},
{"Product":"NFS","Year":"2021","Month":"July","State":"Delhi","District":"South West Delhi","Latitude":"28.5928929","Longitude":"77.0346163999999","Volume":"2.1"},
{"Product":"NFS","Year":"2021","Month":"July","State":"Delhi","District":"South Delhi","Latitude":"28.4816551","Longitude":"77.1872856999999","Volume":"2.04"},
{"Product":"NFS","Year":"2021","Month":"July","State":"Delhi","District":"West Delhi","Latitude":"28.6663433","Longitude":"77.067959","Volume":"1.77"},
{"Product":"NFS","Year":"2021","Month":"July","State":"Delhi","District":"North West Delhi","Latitude":"28.7186211","Longitude":"77.0685134","Volume":"1.58"},
{"Product":"NFS","Year":"2021","Month":"July","State":"Delhi","District":"East Delhi","Latitude":"28.6279559","Longitude":"77.2956272999999","Volume":"1.42"},
{"Product":"NFS","Year":"2021","Month":"July","State":"Delhi","District":"Rest of locations","Latitude":"28.580708","Longitude":"77.248559","Volume":"2.99"},
{"Product":"NFS","Year":"2021","Month":"July","State":"Goa","District":"South Goa","Latitude":"15.11766","Longitude":"74.1239959999999","Volume":"0.71"},
{"Product":"NFS","Year":"2021","Month":"July","State":"Goa","District":"North Goa","Latitude":"15.5163112","Longitude":"73.9830029","Volume":"0.65"},
{"Product":"NFS","Year":"2021","Month":"July","State":"Gujarat","District":"Ahmedabad","Latitude":"23.022505","Longitude":"72.5713621","Volume":"3.99"},
{"Product":"NFS","Year":"2021","Month":"July","State":"Gujarat","District":"Surat","Latitude":"21.1702401","Longitude":"72.8310607","Volume":"3.44"},
{"Product":"NFS","Year":"2021","Month":"July","State":"Gujarat","District":"Vadodara","Latitude":"22.3071588","Longitude":"73.1812187","Volume":"1.86"},
{"Product":"NFS","Year":"2021","Month":"July","State":"Gujarat","District":"Valsad","Latitude":"20.5992349","Longitude":"72.9342451","Volume":"1.26"},
{"Product":"NFS","Year":"2021","Month":"July","State":"Gujarat","District":"Rajkot","Latitude":"22.3038945","Longitude":"70.8021598999999","Volume":"1.08"},
{"Product":"NFS","Year":"2021","Month":"July","State":"Gujarat","District":"Rest of locations","Latitude":"21.3163244","Longitude":"72.9223430999999","Volume":"7.85"},
{"Product":"NFS","Year":"2021","Month":"July","State":"Haryana","District":"Gurgaon","Latitude":"28.4594965","Longitude":"77.0266383","Volume":"2.43"},
{"Product":"NFS","Year":"2021","Month":"July","State":"Haryana","District":"Faridabad","Latitude":"28.4089123","Longitude":"77.3177894","Volume":"1.43"},
{"Product":"NFS","Year":"2021","Month":"July","State":"Haryana","District":"Sonipat","Latitude":"28.9930822999999","Longitude":"77.0150735","Volume":"0.52"},
{"Product":"NFS","Year":"2021","Month":"July","State":"Haryana","District":"Karnal","Latitude":"29.6856929","Longitude":"76.9904825","Volume":"0.49"},
{"Product":"NFS","Year":"2021","Month":"July","State":"Haryana","District":"Ambala","Latitude":"30.3752011","Longitude":"76.782122","Volume":"0.47"},
{"Product":"NFS","Year":"2021","Month":"July","State":"Haryana","District":"Rest of locations","Latitude":"29.1011262","Longitude":"75.8800394","Volume":"4.41"},
{"Product":"NFS","Year":"2021","Month":"July","State":"Himachal Pradesh","District":"Solan","Latitude":"30.9084245","Longitude":"77.0999030999999","Volume":"0.75"},
{"Product":"NFS","Year":"2021","Month":"July","State":"Himachal Pradesh","District":"Kangra","Latitude":"32.0998031","Longitude":"76.2691006","Volume":"0.49"},
{"Product":"NFS","Year":"2021","Month":"July","State":"Himachal Pradesh","District":"Shimla","Latitude":"31.1048145","Longitude":"77.1734032999999","Volume":"0.46"},
{"Product":"NFS","Year":"2021","Month":"July","State":"Himachal Pradesh","District":"Mandi","Latitude":"31.5892006","Longitude":"76.9182096999999","Volume":"0.25"},
{"Product":"NFS","Year":"2021","Month":"July","State":"Himachal Pradesh","District":"Sirmaur","Latitude":"30.5628455","Longitude":"77.4701972","Volume":"0.21"},
{"Product":"NFS","Year":"2021","Month":"July","State":"Himachal Pradesh","District":"Rest of locations","Latitude":"31.1048294","Longitude":"77.1733900999999","Volume":"0.86"},
{"Product":"NFS","Year":"2021","Month":"July","State":"Jammu & Kashmir","District":"Jammu","Latitude":"33.277839","Longitude":"75.3412178999999","Volume":"1.03"},
{"Product":"NFS","Year":"2021","Month":"July","State":"Jammu & Kashmir","District":"Srinagar","Latitude":"34.0836708","Longitude":"74.7972825","Volume":"0.4"},
{"Product":"NFS","Year":"2021","Month":"July","State":"Jammu & Kashmir","District":"Ananthnag","Latitude":"33.7049708","Longitude":"75.2479061","Volume":"0.26"},
{"Product":"NFS","Year":"2021","Month":"July","State":"Jammu & Kashmir","District":"Udhampur","Latitude":"32.9159847","Longitude":"75.1416173","Volume":"0.22"},
{"Product":"NFS","Year":"2021","Month":"July","State":"Jammu & Kashmir","District":"Baramulla","Latitude":"34.1990498","Longitude":"74.3499496","Volume":"0.19"},
{"Product":"NFS","Year":"2021","Month":"July","State":"Jammu & Kashmir","District":"Rest of locations","Latitude":"33.277839","Longitude":"75.3412178999999","Volume":"1.08"},
{"Product":"NFS","Year":"2021","Month":"July","State":"Jharkhand","District":"Ranchi","Latitude":"23.3440997","Longitude":"85.309562","Volume":"1.08"},
{"Product":"NFS","Year":"2021","Month":"July","State":"Jharkhand","District":"East Singhbhum","Latitude":"22.4866756","Longitude":"86.4996546","Volume":"0.76"},
{"Product":"NFS","Year":"2021","Month":"July","State":"Jharkhand","District":"Dhanbad","Latitude":"23.7956531","Longitude":"86.4303858999999","Volume":"0.63"},
{"Product":"NFS","Year":"2021","Month":"July","State":"Jharkhand","District":"Bokaro","Latitude":"23.6692956","Longitude":"86.151112","Volume":"0.39"},
{"Product":"NFS","Year":"2021","Month":"July","State":"Jharkhand","District":"Hazaribag","Latitude":"23.9924669","Longitude":"85.3636758","Volume":"0.27"},
{"Product":"NFS","Year":"2021","Month":"July","State":"Jharkhand","District":"Rest of locations","Latitude":"23.9931796","Longitude":"85.361781","Volume":"2.09"},
{"Product":"NFS","Year":"2021","Month":"July","State":"Karnataka","District":"Bangalore","Latitude":"12.9715987","Longitude":"77.5945627","Volume":"9.96"},
{"Product":"NFS","Year":"2021","Month":"July","State":"Karnataka","District":"Belgaum","Latitude":"15.8496953","Longitude":"74.4976741","Volume":"1.51"},
{"Product":"NFS","Year":"2021","Month":"July","State":"Karnataka","District":"Mysore","Latitude":"12.2958104","Longitude":"76.6393805","Volume":"1.4"},
{"Product":"NFS","Year":"2021","Month":"July","State":"Karnataka","District":"Dakshina Kannada","Latitude":"12.8437814","Longitude":"75.2479061","Volume":"1.21"},
{"Product":"NFS","Year":"2021","Month":"July","State":"Karnataka","District":"Kolar","Latitude":"13.1362143","Longitude":"78.1290985999999","Volume":"0.97"},
{"Product":"NFS","Year":"2021","Month":"July","State":"Karnataka","District":"Rest of locations","Latitude":"15.2608289","Longitude":"75.3423245","Volume":"13.45"},
{"Product":"NFS","Year":"2021","Month":"July","State":"Kerala","District":"Ernakulam","Latitude":"9.9816358","Longitude":"76.2998842","Volume":"2.7"},
{"Product":"NFS","Year":"2021","Month":"July","State":"Kerala","District":"Thiruvananthapuram","Latitude":"8.5241391","Longitude":"76.9366376","Volume":"2.12"},
{"Product":"NFS","Year":"2021","Month":"July","State":"Kerala","District":"Thrissur","Latitude":"10.5276416","Longitude":"76.2144349","Volume":"1.8"},
{"Product":"NFS","Year":"2021","Month":"July","State":"Kerala","District":"Malappuram","Latitude":"11.0509762","Longitude":"76.0710967","Volume":"1.65"},
{"Product":"NFS","Year":"2021","Month":"July","State":"Kerala","District":"Kozhikode","Latitude":"11.2587531","Longitude":"75.78041","Volume":"1.53"},
{"Product":"NFS","Year":"2021","Month":"July","State":"Kerala","District":"Rest of locations","Latitude":"11.5577391","Longitude":"76.0429893","Volume":"8.48"},
{"Product":"NFS","Year":"2021","Month":"July","State":"Lakshadweep","District":"Lakshadweep","Latitude":"10.5593204","Longitude":"72.6358134","Volume":"0.01"},
{"Product":"NFS","Year":"2021","Month":"July","State":"Madhya Pradesh","District":"Indore","Latitude":"22.7195687","Longitude":"75.8577258","Volume":"2.04"},
{"Product":"NFS","Year":"2021","Month":"July","State":"Madhya Pradesh","District":"Bhopal","Latitude":"23.2599333","Longitude":"77.412615","Volume":"1.3"},
{"Product":"NFS","Year":"2021","Month":"July","State":"Madhya Pradesh","District":"Jabalpur","Latitude":"23.181467","Longitude":"79.9864071","Volume":"0.67"},
{"Product":"NFS","Year":"2021","Month":"July","State":"Madhya Pradesh","District":"Gwalior","Latitude":"26.2182871","Longitude":"78.1828307999999","Volume":"0.59"},
{"Product":"NFS","Year":"2021","Month":"July","State":"Madhya Pradesh","District":"Dhar","Latitude":"22.6012922","Longitude":"75.3024655","Volume":"0.57"},
{"Product":"NFS","Year":"2021","Month":"July","State":"Madhya Pradesh","District":"Rest of locations","Latitude":"22.9734229","Longitude":"78.6568942","Volume":"8.19"},
{"Product":"NFS","Year":"2021","Month":"July","State":"Maharashtra","District":"Thane","Latitude":"19.2183307","Longitude":"72.9780897","Volume":"12.16"},
{"Product":"NFS","Year":"2021","Month":"July","State":"Maharashtra","District":"Mumbai","Latitude":"19.0759837","Longitude":"72.8776559","Volume":"9.06"},
{"Product":"NFS","Year":"2021","Month":"July","State":"Maharashtra","District":"Pune","Latitude":"18.5204303","Longitude":"73.8567437","Volume":"8.78"},
{"Product":"NFS","Year":"2021","Month":"July","State":"Maharashtra","District":"Nagpur","Latitude":"21.1458004","Longitude":"79.0881546","Volume":"2.49"},
{"Product":"NFS","Year":"2021","Month":"July","State":"Maharashtra","District":"Nashik","Latitude":"19.9974533","Longitude":"73.7898022999999","Volume":"1.93"},
{"Product":"NFS","Year":"2021","Month":"July","State":"Maharashtra","District":"Rest of locations","Latitude":"18.7313741","Longitude":"76.3854231999999","Volume":"18.2"},
{"Product":"NFS","Year":"2021","Month":"July","State":"Manipur","District":"Imphal West","Latitude":"24.7827837","Longitude":"93.8858954999999","Volume":"0.23"},
{"Product":"NFS","Year":"2021","Month":"July","State":"Manipur","District":"Thoubal","Latitude":"24.6449243","Longitude":"93.99929","Volume":"0.09"},
{"Product":"NFS","Year":"2021","Month":"July","State":"Manipur","District":"Churachandpur","Latitude":"24.3427485","Longitude":"93.6978264","Volume":"0.08"},
{"Product":"NFS","Year":"2021","Month":"July","State":"Manipur","District":"Imphal East","Latitude":"24.7806536","Longitude":"93.9674371","Volume":"0.06"},
{"Product":"NFS","Year":"2021","Month":"July","State":"Manipur","District":"Bishnupur","Latitude":"24.6303603","Longitude":"93.7598288","Volume":"0.05"},
{"Product":"NFS","Year":"2021","Month":"July","State":"Manipur","District":"Rest of locations","Latitude":"25.0147934","Longitude":"94.3108908999999","Volume":"0.06"},
{"Product":"NFS","Year":"2021","Month":"July","State":"Meghalaya","District":"East Khasi Hills","Latitude":"25.3681768","Longitude":"91.7538817","Volume":"0.24"},
{"Product":"NFS","Year":"2021","Month":"July","State":"Meghalaya","District":"West Garo Hills","Latitude":"25.5679372","Longitude":"90.2244662","Volume":"0.07"},
{"Product":"NFS","Year":"2021","Month":"July","State":"Meghalaya","District":"Jaintia Hills","Latitude":"25.5021272","Longitude":"92.341887","Volume":"0.07"},
{"Product":"NFS","Year":"2021","Month":"July","State":"Meghalaya","District":"Ri Bhoi","Latitude":"25.8431574","Longitude":"91.985621","Volume":"0.04"},
{"Product":"NFS","Year":"2021","Month":"July","State":"Meghalaya","District":"West Khasi Hills","Latitude":"25.5624625","Longitude":"91.2891035999999","Volume":"0.03"},
{"Product":"NFS","Year":"2021","Month":"July","State":"Meghalaya","District":"Rest of locations","Latitude":"25.8718992","Longitude":"91.2585399","Volume":"0.03"},
{"Product":"NFS","Year":"2021","Month":"July","State":"Mizoram","District":"Aizawl","Latitude":"23.7307175","Longitude":"92.7173105999999","Volume":"0.2"},
{"Product":"NFS","Year":"2021","Month":"July","State":"Mizoram","District":"Lunglei","Latitude":"22.8670691","Longitude":"92.7655358","Volume":"0.03"},
{"Product":"NFS","Year":"2021","Month":"July","State":"Mizoram","District":"Champhai","Latitude":"23.4565708","Longitude":"93.3281928999999","Volume":"0.02"},
{"Product":"NFS","Year":"2021","Month":"July","State":"Mizoram","District":"Kolasib","Latitude":"24.224565","Longitude":"92.6760250999999","Volume":"0.02"},
{"Product":"NFS","Year":"2021","Month":"July","State":"Mizoram","District":"Serchhip","Latitude":"23.3416578","Longitude":"92.8502302","Volume":"0.02"},
{"Product":"NFS","Year":"2021","Month":"July","State":"Mizoram","District":"Rest of locations","Latitude":"22.8893827","Longitude":"92.7464487","Volume":"0.04"},
{"Product":"NFS","Year":"2021","Month":"July","State":"Nagaland","District":"Dimapur","Latitude":"25.9091406","Longitude":"93.7265604999999","Volume":"0.17"},
{"Product":"NFS","Year":"2021","Month":"July","State":"Nagaland","District":"Kohima","Latitude":"25.6751129","Longitude":"94.1085998","Volume":"0.08"},
{"Product":"NFS","Year":"2021","Month":"July","State":"Nagaland","District":"Mokokchung","Latitude":"26.3220358","Longitude":"94.5134629","Volume":"0.02"},
{"Product":"NFS","Year":"2021","Month":"July","State":"Nagaland","District":"Wokha","Latitude":"26.0910351","Longitude":"94.2589737999999","Volume":"0.02"},
{"Product":"NFS","Year":"2021","Month":"July","State":"Nagaland","District":"Mon","Latitude":"26.8038362","Longitude":"94.976654","Volume":"0.02"},
{"Product":"NFS","Year":"2021","Month":"July","State":"Nagaland","District":"Rest of locations","Latitude":"26.1584354","Longitude":"94.5624426","Volume":"0.03"},
{"Product":"NFS","Year":"2021","Month":"July","State":"Odisha","District":"Khorda","Latitude":"20.130141","Longitude":"85.4788064999999","Volume":"1.47"},
{"Product":"NFS","Year":"2021","Month":"July","State":"Odisha","District":"Cuttack","Latitude":"20.462521","Longitude":"85.8829895","Volume":"0.88"},
{"Product":"NFS","Year":"2021","Month":"July","State":"Odisha","District":"Ganjam","Latitude":"19.387389","Longitude":"85.0515413","Volume":"0.83"},
{"Product":"NFS","Year":"2021","Month":"July","State":"Odisha","District":"Baleswar","Latitude":"21.4933578","Longitude":"86.9134794","Volume":"0.81"},
{"Product":"NFS","Year":"2021","Month":"July","State":"Odisha","District":"Sundergarh","Latitude":"22.1240025","Longitude":"84.043175","Volume":"0.61"},
{"Product":"NFS","Year":"2021","Month":"July","State":"Odisha","District":"Rest of locations","Latitude":"22.7809873","Longitude":"85.576031","Volume":"6.82"},
{"Product":"NFS","Year":"2021","Month":"July","State":"Pondicherry","District":"Pondicherry","Latitude":"11.9415915","Longitude":"79.8083133","Volume":"0.87"},
{"Product":"NFS","Year":"2021","Month":"July","State":"Pondicherry","District":"Karaikal","Latitude":"10.9254398","Longitude":"79.8380056","Volume":"0.19"},
{"Product":"NFS","Year":"2021","Month":"July","State":"Punjab","District":"Ludhiana","Latitude":"30.900965","Longitude":"75.8572758","Volume":"2.14"},
{"Product":"NFS","Year":"2021","Month":"July","State":"Punjab","District":"Amritsar","Latitude":"31.6339793","Longitude":"74.8722642","Volume":"1.13"},
{"Product":"NFS","Year":"2021","Month":"July","State":"Punjab","District":"Jalandhar","Latitude":"31.3260152","Longitude":"75.5761828999999","Volume":"1.09"},
{"Product":"NFS","Year":"2021","Month":"July","State":"Punjab","District":"Patiala","Latitude":"30.3397809","Longitude":"76.3868797","Volume":"0.91"},
{"Product":"NFS","Year":"2021","Month":"July","State":"Punjab","District":"Rupnagar","Latitude":"30.9661003","Longitude":"76.5230961","Volume":"0.87"},
{"Product":"NFS","Year":"2021","Month":"July","State":"Punjab","District":"Rest of locations","Latitude":"30.7529521","Longitude":"76.4089185","Volume":"4.93"},
{"Product":"NFS","Year":"2021","Month":"July","State":"Rajasthan","District":"Jaipur","Latitude":"26.9124336","Longitude":"75.7872709","Volume":"2.58"},
{"Product":"NFS","Year":"2021","Month":"July","State":"Rajasthan","District":"Alwar","Latitude":"27.5529907","Longitude":"76.6345735","Volume":"0.9"},
{"Product":"NFS","Year":"2021","Month":"July","State":"Rajasthan","District":"Jodhpur","Latitude":"26.2389469","Longitude":"73.0243093999999","Volume":"0.85"},
{"Product":"NFS","Year":"2021","Month":"July","State":"Rajasthan","District":"Ajmer","Latitude":"26.4498954","Longitude":"74.6399163","Volume":"0.71"},
{"Product":"NFS","Year":"2021","Month":"July","State":"Rajasthan","District":"Udaipur","Latitude":"24.585445","Longitude":"73.712479","Volume":"0.66"},
{"Product":"NFS","Year":"2021","Month":"July","State":"Rajasthan","District":"Rest of locations","Latitude":"28.2114731","Longitude":"76.8553251","Volume":"7.37"},
{"Product":"NFS","Year":"2021","Month":"July","State":"Sikkim","District":"East Sikkim","Latitude":"27.3083637","Longitude":"88.6723578","Volume":"0.3"},
{"Product":"NFS","Year":"2021","Month":"July","State":"Sikkim","District":"West Sikkim","Latitude":"27.3031986","Longitude":"88.2071598","Volume":"0.05"},
{"Product":"NFS","Year":"2021","Month":"July","State":"Sikkim","District":"South Sikkim","Latitude":"27.28584","Longitude":"88.3945669","Volume":"0.05"},
{"Product":"NFS","Year":"2021","Month":"July","State":"Sikkim","District":"North Sikkim","Latitude":"27.8236356","Longitude":"88.5565309999999","Volume":"0.01"},
{"Product":"NFS","Year":"2021","Month":"July","State":"Tamil Nadu","District":"Kanchipuram","Latitude":"12.818456","Longitude":"79.6946586","Volume":"5.83"},
{"Product":"NFS","Year":"2021","Month":"July","State":"Tamil Nadu","District":"Coimbatore","Latitude":"11.0168445","Longitude":"76.9558321","Volume":"5.67"},
{"Product":"NFS","Year":"2021","Month":"July","State":"Tamil Nadu","District":"Chennai","Latitude":"13.0826802","Longitude":"80.2707184","Volume":"4.34"},
{"Product":"NFS","Year":"2021","Month":"July","State":"Tamil Nadu","District":"Tiruvallur","Latitude":"13.1230558","Longitude":"79.9119526","Volume":"3.89"},
{"Product":"NFS","Year":"2021","Month":"July","State":"Tamil Nadu","District":"Vellore","Latitude":"12.9165167","Longitude":"79.1324985999999","Volume":"2.63"},
{"Product":"NFS","Year":"2021","Month":"July","State":"Tamil Nadu","District":"Rest of locations","Latitude":"10.9995713","Longitude":"77.0439323","Volume":"31.01"},
{"Product":"NFS","Year":"2021","Month":"July","State":"Telangana","District":"HYDERABAD","Latitude":"17.385044","Longitude":"78.486671","Volume":"5.71"},
{"Product":"NFS","Year":"2021","Month":"July","State":"Telangana","District":"K.V.RANGAREDDY","Latitude":"17.3891379","Longitude":"77.8367282","Volume":"3.17"},
{"Product":"NFS","Year":"2021","Month":"July","State":"Telangana","District":"Karim Nagar","Latitude":"18.4385553","Longitude":"79.1288412","Volume":"1.37"},
{"Product":"NFS","Year":"2021","Month":"July","State":"Telangana","District":"Medak","Latitude":"18.0529357","Longitude":"78.261853","Volume":"1.21"},
{"Product":"NFS","Year":"2021","Month":"July","State":"Telangana","District":"Mahabub Nagar","Latitude":"16.7488379","Longitude":"78.0035171999999","Volume":"0.99"},
{"Product":"NFS","Year":"2021","Month":"July","State":"Telangana","District":"Rest of locations","Latitude":"18.1124372","Longitude":"79.0192996999999","Volume":"3.98"},
{"Product":"NFS","Year":"2021","Month":"July","State":"Tripura","District":"WEST TRIPURA","Latitude":"23.899682","Longitude":"91.4048249","Volume":"0.46"},
{"Product":"NFS","Year":"2021","Month":"July","State":"Tripura","District":"North Tripura","Latitude":"24.0797139","Longitude":"92.2630393","Volume":"0.14"},
{"Product":"NFS","Year":"2021","Month":"July","State":"Tripura","District":"South Tripura","Latitude":"23.2317493","Longitude":"91.5596116999999","Volume":"0.13"},
{"Product":"NFS","Year":"2021","Month":"July","State":"Tripura","District":"Dhalai","Latitude":"23.8466982","Longitude":"91.9099238","Volume":"0.05"},
{"Product":"NFS","Year":"2021","Month":"July","State":"Uttar Pradesh","District":"Lucknow","Latitude":"26.8466937","Longitude":"80.9461659999999","Volume":"2.72"},
{"Product":"NFS","Year":"2021","Month":"July","State":"Uttar Pradesh","District":"Gautam Buddha Nagar","Latitude":"28.358983","Longitude":"77.5507619999999","Volume":"2.05"},
{"Product":"NFS","Year":"2021","Month":"July","State":"Uttar Pradesh","District":"Ghaziabad","Latitude":"28.6691565","Longitude":"77.4537577999999","Volume":"2.03"},
{"Product":"NFS","Year":"2021","Month":"July","State":"Uttar Pradesh","District":"Varanasi","Latitude":"25.3176452","Longitude":"82.9739144","Volume":"1.4"},
{"Product":"NFS","Year":"2021","Month":"July","State":"Uttar Pradesh","District":"Gorakhpur","Latitude":"26.7605545","Longitude":"83.3731675","Volume":"1.28"},
{"Product":"NFS","Year":"2021","Month":"July","State":"Uttar Pradesh","District":"Rest of locations","Latitude":"26.8467088","Longitude":"80.9461592","Volume":"23.36"},
{"Product":"NFS","Year":"2021","Month":"July","State":"Uttarakhand","District":"Dehradun","Latitude":"30.3164945","Longitude":"78.0321917999999","Volume":"1.25"},
{"Product":"NFS","Year":"2021","Month":"July","State":"Uttarakhand","District":"Haridwar","Latitude":"29.9456906","Longitude":"78.1642478","Volume":"0.82"},
{"Product":"NFS","Year":"2021","Month":"July","State":"Uttarakhand","District":"Udham Singh Nagar","Latitude":"28.9609653","Longitude":"79.5153773","Volume":"0.8"},
{"Product":"NFS","Year":"2021","Month":"July","State":"Uttarakhand","District":"Nainital","Latitude":"29.3919202","Longitude":"79.4542033","Volume":"0.41"},
{"Product":"NFS","Year":"2021","Month":"July","State":"Uttarakhand","District":"Almora","Latitude":"29.5892407","Longitude":"79.646666","Volume":"0.19"},
{"Product":"NFS","Year":"2021","Month":"July","State":"Uttarakhand","District":"Rest of locations","Latitude":"29.7621229","Longitude":"78.8002616","Volume":"0.65"},
{"Product":"NFS","Year":"2021","Month":"July","State":"West Bengal","District":"Kolkata","Latitude":"22.572646","Longitude":"88.363895","Volume":"3.28"},
{"Product":"NFS","Year":"2021","Month":"July","State":"West Bengal","District":"North 24 Parganas","Latitude":"22.6168099","Longitude":"88.402895","Volume":"2.63"},
{"Product":"NFS","Year":"2021","Month":"July","State":"West Bengal","District":"Bardhaman","Latitude":"23.2324214","Longitude":"87.8614793","Volume":"1.67"},
{"Product":"NFS","Year":"2021","Month":"July","State":"West Bengal","District":"South 24 Parganas","Latitude":"22.1352378","Longitude":"88.4016041","Volume":"1.43"},
{"Product":"NFS","Year":"2021","Month":"July","State":"West Bengal","District":"Howrah","Latitude":"22.5957689","Longitude":"88.2636394","Volume":"1.35"},
{"Product":"NFS","Year":"2021","Month":"July","State":"West Bengal","District":"Rest of locations","Latitude":"22.6434952","Longitude":"88.4220856","Volume":"9.35"},
{"Product":"NFS","Year":"2021","Month":"July","State":"OTHERS*","District":"OTHERS*","Latitude":"19.7899888","Longitude":"72.1001898","Volume":"1.42"},
{"Product":"NFS","Year":"2021","Month":"June","State":"Andaman & Nicobar Islands","District":"South Andaman","Latitude":"11.8311681","Longitude":"92.6586401","Volume":"0.09"},
{"Product":"NFS","Year":"2021","Month":"June","State":"Andaman & Nicobar Islands","District":"North And Middle Andaman","Latitude":"12.6518832","Longitude":"92.8976254","Volume":"0.01"},
{"Product":"NFS","Year":"2021","Month":"June","State":"Andhra Pradesh","District":"Visakhapatnam","Latitude":"17.6868159","Longitude":"83.2184815","Volume":"2.25"},
{"Product":"NFS","Year":"2021","Month":"June","State":"Andhra Pradesh","District":"Krishna","Latitude":"16.6099914","Longitude":"80.7214417","Volume":"1.76"},
{"Product":"NFS","Year":"2021","Month":"June","State":"Andhra Pradesh","District":"Chittoor","Latitude":"13.217176","Longitude":"79.1003289","Volume":"1.7"},
{"Product":"NFS","Year":"2021","Month":"June","State":"Andhra Pradesh","District":"East Godavari","Latitude":"17.32125","Longitude":"82.0407137","Volume":"1.62"},
{"Product":"NFS","Year":"2021","Month":"June","State":"Andhra Pradesh","District":"Guntur","Latitude":"16.3066525","Longitude":"80.4365402","Volume":"1.58"},
{"Product":"NFS","Year":"2021","Month":"June","State":"Andhra Pradesh","District":"Rest of locations","Latitude":"15.9128998","Longitude":"79.7399875","Volume":"7.54"},
{"Product":"NFS","Year":"2021","Month":"June","State":"Arunachal Pradesh","District":"Papum Pare","Latitude":"27.1719019","Longitude":"93.7029002","Volume":"0.1"},
{"Product":"NFS","Year":"2021","Month":"June","State":"Arunachal Pradesh","District":"East Siang","Latitude":"28.1097051","Longitude":"95.1432068","Volume":"0.03"},
{"Product":"NFS","Year":"2021","Month":"June","State":"Arunachal Pradesh","District":"Lower Subansiri","Latitude":"27.6169349","Longitude":"93.8391556999999","Volume":"0.02"},
{"Product":"NFS","Year":"2021","Month":"June","State":"Arunachal Pradesh","District":"Upper Subansiri","Latitude":"27.786802","Longitude":"94.3359634999999","Volume":"0.02"},
{"Product":"NFS","Year":"2021","Month":"June","State":"Arunachal Pradesh","District":"West Siang","Latitude":"28.147254","Longitude":"94.7484518","Volume":"0.02"},
{"Product":"NFS","Year":"2021","Month":"June","State":"Arunachal Pradesh","District":"Rest of locations","Latitude":"28.2179994","Longitude":"94.7277528","Volume":"0.08"},
{"Product":"NFS","Year":"2021","Month":"June","State":"Assam","District":"Kamrup","Latitude":"26.3160819","Longitude":"91.5983959","Volume":"1.34"},
{"Product":"NFS","Year":"2021","Month":"June","State":"Assam","District":"Cachar","Latitude":"24.7821253","Longitude":"92.8577105","Volume":"0.39"},
{"Product":"NFS","Year":"2021","Month":"June","State":"Assam","District":"Sonitpur","Latitude":"26.6738851","Longitude":"92.8577105","Volume":"0.32"},
{"Product":"NFS","Year":"2021","Month":"June","State":"Assam","District":"Dibrugarh","Latitude":"27.4728327","Longitude":"94.9119621","Volume":"0.32"},
{"Product":"NFS","Year":"2021","Month":"June","State":"Assam","District":"Nagaon","Latitude":"26.348009","Longitude":"92.6838111","Volume":"0.29"},
{"Product":"NFS","Year":"2021","Month":"June","State":"Assam","District":"Rest of locations","Latitude":"26.49462","Longitude":"92.894335","Volume":"3.1"},
{"Product":"NFS","Year":"2021","Month":"June","State":"Bihar","District":"Patna","Latitude":"25.5940947","Longitude":"85.1375645","Volume":"1.77"},
{"Product":"NFS","Year":"2021","Month":"June","State":"Bihar","District":"Muzaffarpur","Latitude":"26.1196607","Longitude":"85.390982","Volume":"0.78"},
{"Product":"NFS","Year":"2021","Month":"June","State":"Bihar","District":"Saran","Latitude":"25.8559698","Longitude":"84.8567932","Volume":"0.62"},
{"Product":"NFS","Year":"2021","Month":"June","State":"Bihar","District":"East Champaran","Latitude":"26.6098139","Longitude":"84.8567932","Volume":"0.59"},
{"Product":"NFS","Year":"2021","Month":"June","State":"Bihar","District":"West Champaran","Latitude":"27.1543104","Longitude":"84.3542049","Volume":"0.58"},
{"Product":"NFS","Year":"2021","Month":"June","State":"Bihar","District":"Rest of locations","Latitude":"24.8455266","Longitude":"85.1476264","Volume":"9.18"},
{"Product":"NFS","Year":"2021","Month":"June","State":"Chandigarh","District":"Chandigarh","Latitude":"30.7333148","Longitude":"76.7794179","Volume":"0.8"},
{"Product":"NFS","Year":"2021","Month":"June","State":"Chattisgarh","District":"Raipur","Latitude":"21.2513844","Longitude":"81.6296413","Volume":"1.55"},
{"Product":"NFS","Year":"2021","Month":"June","State":"Chattisgarh","District":"Durg","Latitude":"21.1904494","Longitude":"81.2849169","Volume":"1.03"},
{"Product":"NFS","Year":"2021","Month":"June","State":"Chattisgarh","District":"Bilaspur(CGH)","Latitude":"22.070343","Longitude":"82.1377574","Volume":"0.56"},
{"Product":"NFS","Year":"2021","Month":"June","State":"Chattisgarh","District":"Rajnandgaon","Latitude":"21.0976046","Longitude":"81.0337066","Volume":"0.41"},
{"Product":"NFS","Year":"2021","Month":"June","State":"Chattisgarh","District":"Surguja","Latitude":"22.9494079","Longitude":"83.1649001","Volume":"0.34"},
{"Product":"NFS","Year":"2021","Month":"June","State":"Chattisgarh","District":"Rest of locations","Latitude":"21.2786567","Longitude":"81.8661442","Volume":"2.29"},
{"Product":"NFS","Year":"2021","Month":"June","State":"Dadra & Nagar Haveli","District":"Dadra & Nagar Haveli","Latitude":"20.1808672","Longitude":"73.0169135","Volume":"0.06"},
{"Product":"NFS","Year":"2021","Month":"June","State":"Daman & Diu","District":"Daman","Latitude":"20.3973736","Longitude":"72.8327991","Volume":"0.21"},
{"Product":"NFS","Year":"2021","Month":"June","State":"Daman & Diu","District":"Diu","Latitude":"20.7144094","Longitude":"70.9873719","Volume":"0.02"},
{"Product":"NFS","Year":"2021","Month":"June","State":"Delhi","District":"South West Delhi","Latitude":"28.5928929","Longitude":"77.0346163999999","Volume":"1.81"},
{"Product":"NFS","Year":"2021","Month":"June","State":"Delhi","District":"South Delhi","Latitude":"28.4816551","Longitude":"77.1872856999999","Volume":"1.77"},
{"Product":"NFS","Year":"2021","Month":"June","State":"Delhi","District":"West Delhi","Latitude":"28.6663433","Longitude":"77.067959","Volume":"1.57"},
{"Product":"NFS","Year":"2021","Month":"June","State":"Delhi","District":"North West Delhi","Latitude":"28.7186211","Longitude":"77.0685134","Volume":"1.39"},
{"Product":"NFS","Year":"2021","Month":"June","State":"Delhi","District":"East Delhi","Latitude":"28.6279559","Longitude":"77.2956272999999","Volume":"1.26"},
{"Product":"NFS","Year":"2021","Month":"June","State":"Delhi","District":"Rest of locations","Latitude":"28.580708","Longitude":"77.248559","Volume":"2.53"},
{"Product":"NFS","Year":"2021","Month":"June","State":"Goa","District":"South Goa","Latitude":"15.11766","Longitude":"74.1239959999999","Volume":"0.63"},
{"Product":"NFS","Year":"2021","Month":"June","State":"Goa","District":"North Goa","Latitude":"15.5163112","Longitude":"73.9830029","Volume":"0.58"},
{"Product":"NFS","Year":"2021","Month":"June","State":"Gujarat","District":"Ahmedabad","Latitude":"23.022505","Longitude":"72.5713621","Volume":"3.67"},
{"Product":"NFS","Year":"2021","Month":"June","State":"Gujarat","District":"Surat","Latitude":"21.1702401","Longitude":"72.8310607","Volume":"3.08"},
{"Product":"NFS","Year":"2021","Month":"June","State":"Gujarat","District":"Vadodara","Latitude":"22.3071588","Longitude":"73.1812187","Volume":"1.75"},
{"Product":"NFS","Year":"2021","Month":"June","State":"Gujarat","District":"Valsad","Latitude":"20.5992349","Longitude":"72.9342451","Volume":"1.15"},
{"Product":"NFS","Year":"2021","Month":"June","State":"Gujarat","District":"Rajkot","Latitude":"22.3038945","Longitude":"70.8021598999999","Volume":"1.01"},
{"Product":"NFS","Year":"2021","Month":"June","State":"Gujarat","District":"Rest of locations","Latitude":"22.3163244","Longitude":"72.9223430999999","Volume":"7.35"},
{"Product":"NFS","Year":"2021","Month":"June","State":"Haryana","District":"Gurgaon","Latitude":"28.4594965","Longitude":"77.0266383","Volume":"2.13"},
{"Product":"NFS","Year":"2021","Month":"June","State":"Haryana","District":"Faridabad","Latitude":"28.4089123","Longitude":"77.3177894","Volume":"1.31"},
{"Product":"NFS","Year":"2021","Month":"June","State":"Haryana","District":"Sonipat","Latitude":"28.9930822999999","Longitude":"77.0150735","Volume":"0.48"},
{"Product":"NFS","Year":"2021","Month":"June","State":"Haryana","District":"Karnal","Latitude":"29.6856929","Longitude":"76.9904825","Volume":"0.47"},
{"Product":"NFS","Year":"2021","Month":"June","State":"Haryana","District":"Ambala","Latitude":"30.3752011","Longitude":"76.782122","Volume":"0.44"},
{"Product":"NFS","Year":"2021","Month":"June","State":"Haryana","District":"Rest of locations","Latitude":"29.1011262","Longitude":"75.8800394","Volume":"4.07"},
{"Product":"NFS","Year":"2021","Month":"June","State":"Himachal Pradesh","District":"Solan","Latitude":"30.9084245","Longitude":"77.0999030999999","Volume":"0.67"},
{"Product":"NFS","Year":"2021","Month":"June","State":"Himachal Pradesh","District":"Kangra","Latitude":"32.0998031","Longitude":"76.2691006","Volume":"0.43"},
{"Product":"NFS","Year":"2021","Month":"June","State":"Himachal Pradesh","District":"Shimla","Latitude":"31.1048145","Longitude":"77.1734032999999","Volume":"0.37"},
{"Product":"NFS","Year":"2021","Month":"June","State":"Himachal Pradesh","District":"Mandi","Latitude":"31.5892006","Longitude":"76.9182096999999","Volume":"0.21"},
{"Product":"NFS","Year":"2021","Month":"June","State":"Himachal Pradesh","District":"Sirmaur","Latitude":"30.5628455","Longitude":"77.4701972","Volume":"0.18"},
{"Product":"NFS","Year":"2021","Month":"June","State":"Himachal Pradesh","District":"Rest of locations","Latitude":"31.1048294","Longitude":"77.1733900999999","Volume":"0.72"},
{"Product":"NFS","Year":"2021","Month":"June","State":"Jammu & Kashmir","District":"Jammu","Latitude":"33.277839","Longitude":"75.3412178999999","Volume":"0.92"},
{"Product":"NFS","Year":"2021","Month":"June","State":"Jammu & Kashmir","District":"Srinagar","Latitude":"34.0836708","Longitude":"74.7972825","Volume":"0.33"},
{"Product":"NFS","Year":"2021","Month":"June","State":"Jammu & Kashmir","District":"Ananthnag","Latitude":"33.7049708","Longitude":"75.2479061","Volume":"0.22"},
{"Product":"NFS","Year":"2021","Month":"June","State":"Jammu & Kashmir","District":"Udhampur","Latitude":"32.9159847","Longitude":"75.1416173","Volume":"0.18"},
{"Product":"NFS","Year":"2021","Month":"June","State":"Jammu & Kashmir","District":"Kathua","Latitude":"32.3863082","Longitude":"75.5173465","Volume":"0.17"},
{"Product":"NFS","Year":"2021","Month":"June","State":"Jammu & Kashmir","District":"Rest of locations","Latitude":"33.277839","Longitude":"75.3412178999999","Volume":"0.92"},
{"Product":"NFS","Year":"2021","Month":"June","State":"Jharkhand","District":"Ranchi","Latitude":"23.3440997","Longitude":"85.309562","Volume":"0.97"},
{"Product":"NFS","Year":"2021","Month":"June","State":"Jharkhand","District":"East Singhbhum","Latitude":"22.4866756","Longitude":"86.4996546","Volume":"0.69"},
{"Product":"NFS","Year":"2021","Month":"June","State":"Jharkhand","District":"Dhanbad","Latitude":"23.7956531","Longitude":"86.4303858999999","Volume":"0.56"},
{"Product":"NFS","Year":"2021","Month":"June","State":"Jharkhand","District":"Bokaro","Latitude":"23.6692956","Longitude":"86.151112","Volume":"0.35"},
{"Product":"NFS","Year":"2021","Month":"June","State":"Jharkhand","District":"Hazaribag","Latitude":"23.9924669","Longitude":"85.3636758","Volume":"0.24"},
{"Product":"NFS","Year":"2021","Month":"June","State":"Jharkhand","District":"Rest of locations","Latitude":"23.9931796","Longitude":"85.361781","Volume":"2.03"},
{"Product":"NFS","Year":"2021","Month":"June","State":"Karnataka","District":"Bangalore","Latitude":"12.9715987","Longitude":"77.5945627","Volume":"7.64"},
{"Product":"NFS","Year":"2021","Month":"June","State":"Karnataka","District":"Belgaum","Latitude":"15.8496953","Longitude":"74.4976741","Volume":"1.27"},
{"Product":"NFS","Year":"2021","Month":"June","State":"Karnataka","District":"Mysore","Latitude":"12.2958104","Longitude":"76.6393805","Volume":"1.08"},
{"Product":"NFS","Year":"2021","Month":"June","State":"Karnataka","District":"Dakshina Kannada","Latitude":"12.8437814","Longitude":"75.2479061","Volume":"0.88"},
{"Product":"NFS","Year":"2021","Month":"June","State":"Karnataka","District":"Kolar","Latitude":"13.1362143","Longitude":"78.1290985999999","Volume":"0.83"},
{"Product":"NFS","Year":"2021","Month":"June","State":"Karnataka","District":"Rest of locations","Latitude":"15.2608289","Longitude":"75.3423245","Volume":"11.28"},
{"Product":"NFS","Year":"2021","Month":"June","State":"Kerala","District":"Ernakulam","Latitude":"9.9816358","Longitude":"76.2998842","Volume":"2.24"},
{"Product":"NFS","Year":"2021","Month":"June","State":"Kerala","District":"Thiruvananthapuram","Latitude":"8.5241391","Longitude":"76.9366376","Volume":"1.84"},
{"Product":"NFS","Year":"2021","Month":"June","State":"Kerala","District":"Thrissur","Latitude":"10.5276416","Longitude":"76.2144349","Volume":"1.56"},
{"Product":"NFS","Year":"2021","Month":"June","State":"Kerala","District":"Malappuram","Latitude":"11.0509762","Longitude":"76.0710967","Volume":"1.47"},
{"Product":"NFS","Year":"2021","Month":"June","State":"Kerala","District":"Kozhikode","Latitude":"11.2587531","Longitude":"75.78041","Volume":"1.4"},
{"Product":"NFS","Year":"2021","Month":"June","State":"Kerala","District":"Rest of locations","Latitude":"11.5577391","Longitude":"76.0429893","Volume":"7.46"},
{"Product":"NFS","Year":"2021","Month":"June","State":"Lakshadweep","District":"Lakshadweep","Latitude":"10.5593204","Longitude":"72.6358134","Volume":"0.01"},
{"Product":"NFS","Year":"2021","Month":"June","State":"Madhya Pradesh","District":"Indore","Latitude":"22.7195687","Longitude":"75.8577258","Volume":"1.79"},
{"Product":"NFS","Year":"2021","Month":"June","State":"Madhya Pradesh","District":"Bhopal","Latitude":"23.2599333","Longitude":"77.412615","Volume":"1.15"},
{"Product":"NFS","Year":"2021","Month":"June","State":"Madhya Pradesh","District":"Jabalpur","Latitude":"23.181467","Longitude":"79.9864071","Volume":"0.63"},
{"Product":"NFS","Year":"2021","Month":"June","State":"Madhya Pradesh","District":"Gwalior","Latitude":"26.2182871","Longitude":"78.1828307999999","Volume":"0.56"},
{"Product":"NFS","Year":"2021","Month":"June","State":"Madhya Pradesh","District":"Dhar","Latitude":"22.6012922","Longitude":"75.3024655","Volume":"0.55"},
{"Product":"NFS","Year":"2021","Month":"June","State":"Madhya Pradesh","District":"Rest of locations","Latitude":"22.9734229","Longitude":"78.6568942","Volume":"8.5"},
{"Product":"NFS","Year":"2021","Month":"June","State":"Maharashtra","District":"Thane","Latitude":"19.2183307","Longitude":"72.9780897","Volume":"11.6"},
{"Product":"NFS","Year":"2021","Month":"June","State":"Maharashtra","District":"Mumbai","Latitude":"19.0759837","Longitude":"72.8776559","Volume":"8.17"},
{"Product":"NFS","Year":"2021","Month":"June","State":"Maharashtra","District":"Pune","Latitude":"18.5204303","Longitude":"73.8567437","Volume":"8.11"},
{"Product":"NFS","Year":"2021","Month":"June","State":"Maharashtra","District":"Nagpur","Latitude":"21.1458004","Longitude":"79.0881546","Volume":"2.45"},
{"Product":"NFS","Year":"2021","Month":"June","State":"Maharashtra","District":"Nashik","Latitude":"19.9974533","Longitude":"73.7898022999999","Volume":"1.83"},
{"Product":"NFS","Year":"2021","Month":"June","State":"Maharashtra","District":"Rest of locations","Latitude":"18.7313741","Longitude":"76.3854231999999","Volume":"18.19"},
{"Product":"NFS","Year":"2021","Month":"June","State":"Manipur","District":"Imphal West","Latitude":"24.7827837","Longitude":"93.8858954999999","Volume":"0.23"},
{"Product":"NFS","Year":"2021","Month":"June","State":"Manipur","District":"Thoubal","Latitude":"24.6449243","Longitude":"93.99929","Volume":"0.09"},
{"Product":"NFS","Year":"2021","Month":"June","State":"Manipur","District":"Churachandpur","Latitude":"24.3427485","Longitude":"93.6978264","Volume":"0.07"},
{"Product":"NFS","Year":"2021","Month":"June","State":"Manipur","District":"Imphal East","Latitude":"24.7806536","Longitude":"93.9674371","Volume":"0.07"},
{"Product":"NFS","Year":"2021","Month":"June","State":"Manipur","District":"Bishnupur","Latitude":"24.6303603","Longitude":"93.7598288","Volume":"0.04"},
{"Product":"NFS","Year":"2021","Month":"June","State":"Manipur","District":"Rest of locations","Latitude":"25.0147934","Longitude":"94.3108908999999","Volume":"0.05"},
{"Product":"NFS","Year":"2021","Month":"June","State":"Meghalaya","District":"East Khasi Hills","Latitude":"25.3681768","Longitude":"91.7538817","Volume":"0.2"},
{"Product":"NFS","Year":"2021","Month":"June","State":"Meghalaya","District":"West Garo Hills","Latitude":"25.5679372","Longitude":"90.2244662","Volume":"0.06"},
{"Product":"NFS","Year":"2021","Month":"June","State":"Meghalaya","District":"Jaintia Hills","Latitude":"25.5021272","Longitude":"92.341887","Volume":"0.06"},
{"Product":"NFS","Year":"2021","Month":"June","State":"Meghalaya","District":"Ri Bhoi","Latitude":"25.8431574","Longitude":"91.985621","Volume":"0.03"},
{"Product":"NFS","Year":"2021","Month":"June","State":"Meghalaya","District":"West Khasi Hills","Latitude":"25.5624625","Longitude":"91.2891035999999","Volume":"0.03"},
{"Product":"NFS","Year":"2021","Month":"June","State":"Meghalaya","District":"Rest of locations","Latitude":"25.8718992","Longitude":"92.2585399","Volume":"0.02"},
{"Product":"NFS","Year":"2021","Month":"June","State":"Mizoram","District":"Aizawl","Latitude":"23.7307175","Longitude":"92.7173105999999","Volume":"0.19"},
{"Product":"NFS","Year":"2021","Month":"June","State":"Mizoram","District":"Lunglei","Latitude":"22.8670691","Longitude":"92.7655358","Volume":"0.04"},
{"Product":"NFS","Year":"2021","Month":"June","State":"Mizoram","District":"Kolasib","Latitude":"24.224565","Longitude":"92.6760250999999","Volume":"0.02"},
{"Product":"NFS","Year":"2021","Month":"June","State":"Mizoram","District":"Champhai","Latitude":"23.4565708","Longitude":"93.3281928999999","Volume":"0.02"},
{"Product":"NFS","Year":"2021","Month":"June","State":"Mizoram","District":"Serchhip","Latitude":"23.3416578","Longitude":"92.8502302","Volume":"0.02"},
{"Product":"NFS","Year":"2021","Month":"June","State":"Mizoram","District":"Rest of locations","Latitude":"22.8893827","Longitude":"92.7464487","Volume":"0.04"},
{"Product":"NFS","Year":"2021","Month":"June","State":"Nagaland","District":"Dimapur","Latitude":"25.9091406","Longitude":"93.7265604999999","Volume":"0.13"},
{"Product":"NFS","Year":"2021","Month":"June","State":"Nagaland","District":"Kohima","Latitude":"25.6751129","Longitude":"94.1085998","Volume":"0.06"},
{"Product":"NFS","Year":"2021","Month":"June","State":"Nagaland","District":"Mokokchung","Latitude":"26.3220358","Longitude":"94.5134629","Volume":"0.02"},
{"Product":"NFS","Year":"2021","Month":"June","State":"Nagaland","District":"Mon","Latitude":"26.8038362","Longitude":"94.976654","Volume":"0.02"},
{"Product":"NFS","Year":"2021","Month":"June","State":"Nagaland","District":"Wokha","Latitude":"26.0910351","Longitude":"94.2589737999999","Volume":"0.01"},
{"Product":"NFS","Year":"2021","Month":"June","State":"Nagaland","District":"Rest of locations","Latitude":"26.1584354","Longitude":"94.5624426","Volume":"0.03"},
{"Product":"NFS","Year":"2021","Month":"June","State":"Odisha","District":"Khorda","Latitude":"20.130141","Longitude":"85.4788064999999","Volume":"1.25"},
{"Product":"NFS","Year":"2021","Month":"June","State":"Odisha","District":"Ganjam","Latitude":"19.387389","Longitude":"85.0515413","Volume":"0.77"},
{"Product":"NFS","Year":"2021","Month":"June","State":"Odisha","District":"Cuttack","Latitude":"20.462521","Longitude":"85.8829895","Volume":"0.76"},
{"Product":"NFS","Year":"2021","Month":"June","State":"Odisha","District":"Baleswar","Latitude":"21.4933578","Longitude":"86.9134794","Volume":"0.7"},
{"Product":"NFS","Year":"2021","Month":"June","State":"Odisha","District":"Sundergarh","Latitude":"22.1240025","Longitude":"84.043175","Volume":"0.54"},
{"Product":"NFS","Year":"2021","Month":"June","State":"Odisha","District":"Rest of locations","Latitude":"19.7809873","Longitude":"85.576031","Volume":"6.12"},
{"Product":"NFS","Year":"2021","Month":"June","State":"Pondicherry","District":"Pondicherry","Latitude":"11.9415915","Longitude":"79.8083133","Volume":"0.77"},
{"Product":"NFS","Year":"2021","Month":"June","State":"Pondicherry","District":"Karaikal","Latitude":"10.9254398","Longitude":"79.8380056","Volume":"0.17"},
{"Product":"NFS","Year":"2021","Month":"June","State":"Punjab","District":"Ludhiana","Latitude":"30.900965","Longitude":"75.8572758","Volume":"1.95"},
{"Product":"NFS","Year":"2021","Month":"June","State":"Punjab","District":"Amritsar","Latitude":"31.6339793","Longitude":"74.8722642","Volume":"1.04"},
{"Product":"NFS","Year":"2021","Month":"June","State":"Punjab","District":"Jalandhar","Latitude":"31.3260152","Longitude":"75.5761828999999","Volume":"1.03"},
{"Product":"NFS","Year":"2021","Month":"June","State":"Punjab","District":"Patiala","Latitude":"30.3397809","Longitude":"76.3868797","Volume":"0.83"},
{"Product":"NFS","Year":"2021","Month":"June","State":"Punjab","District":"Rupnagar","Latitude":"30.9661003","Longitude":"76.5230961","Volume":"0.8"},
{"Product":"NFS","Year":"2021","Month":"June","State":"Punjab","District":"Rest of locations","Latitude":"30.7529521","Longitude":"76.4089185","Volume":"4.58"},
{"Product":"NFS","Year":"2021","Month":"June","State":"Rajasthan","District":"Jaipur","Latitude":"26.9124336","Longitude":"75.7872709","Volume":"2.17"},
{"Product":"NFS","Year":"2021","Month":"June","State":"Rajasthan","District":"Alwar","Latitude":"27.5529907","Longitude":"76.6345735","Volume":"0.82"},
{"Product":"NFS","Year":"2021","Month":"June","State":"Rajasthan","District":"Jodhpur","Latitude":"26.2389469","Longitude":"73.0243093999999","Volume":"0.74"},
{"Product":"NFS","Year":"2021","Month":"June","State":"Rajasthan","District":"Ajmer","Latitude":"26.4498954","Longitude":"74.6399163","Volume":"0.63"},
{"Product":"NFS","Year":"2021","Month":"June","State":"Rajasthan","District":"Udaipur","Latitude":"24.585445","Longitude":"73.712479","Volume":"0.57"},
{"Product":"NFS","Year":"2021","Month":"June","State":"Rajasthan","District":"Rest of locations","Latitude":"28.2114731","Longitude":"76.8553251","Volume":"6.73"},
{"Product":"NFS","Year":"2021","Month":"June","State":"Sikkim","District":"East Sikkim","Latitude":"27.3083637","Longitude":"88.6723578","Volume":"0.24"},
{"Product":"NFS","Year":"2021","Month":"June","State":"Sikkim","District":"West Sikkim","Latitude":"27.3031986","Longitude":"88.2071598","Volume":"0.04"},
{"Product":"NFS","Year":"2021","Month":"June","State":"Sikkim","District":"South Sikkim","Latitude":"27.28584","Longitude":"88.3945669","Volume":"0.04"},
{"Product":"NFS","Year":"2021","Month":"June","State":"Sikkim","District":"North Sikkim","Latitude":"27.8236356","Longitude":"88.5565309999999","Volume":"0.01"},
{"Product":"NFS","Year":"2021","Month":"June","State":"Tamil Nadu","District":"Kanchipuram","Latitude":"12.818456","Longitude":"79.6946586","Volume":"4.53"},
{"Product":"NFS","Year":"2021","Month":"June","State":"Tamil Nadu","District":"Coimbatore","Latitude":"11.0168445","Longitude":"76.9558321","Volume":"3.63"},
{"Product":"NFS","Year":"2021","Month":"June","State":"Tamil Nadu","District":"Chennai","Latitude":"13.0826802","Longitude":"80.2707184","Volume":"3.35"},
{"Product":"NFS","Year":"2021","Month":"June","State":"Tamil Nadu","District":"Tiruvallur","Latitude":"13.1230558","Longitude":"79.9119526","Volume":"3.18"},
{"Product":"NFS","Year":"2021","Month":"June","State":"Tamil Nadu","District":"Vellore","Latitude":"12.9165167","Longitude":"79.1324985999999","Volume":"2.19"},
{"Product":"NFS","Year":"2021","Month":"June","State":"Tamil Nadu","District":"Rest of locations","Latitude":"10.9995713","Longitude":"77.0439323","Volume":"24.26"},
{"Product":"NFS","Year":"2021","Month":"June","State":"Telangana","District":"HYDERABAD","Latitude":"17.385044","Longitude":"78.486671","Volume":"4.97"},
{"Product":"NFS","Year":"2021","Month":"June","State":"Telangana","District":"K.V.RANGAREDDY","Latitude":"17.3891379","Longitude":"77.8367282","Volume":"2.81"},
{"Product":"NFS","Year":"2021","Month":"June","State":"Telangana","District":"Karim Nagar","Latitude":"18.4385553","Longitude":"79.1288412","Volume":"1.53"},
{"Product":"NFS","Year":"2021","Month":"June","State":"Telangana","District":"Medak","Latitude":"18.0529357","Longitude":"78.261853","Volume":"1.28"},
{"Product":"NFS","Year":"2021","Month":"June","State":"Telangana","District":"Mahabub Nagar","Latitude":"16.7488379","Longitude":"78.0035171999999","Volume":"1.06"},
{"Product":"NFS","Year":"2021","Month":"June","State":"Telangana","District":"Rest of locations","Latitude":"18.1124372","Longitude":"79.0192996999999","Volume":"4.27"},
{"Product":"NFS","Year":"2021","Month":"June","State":"Tripura","District":"WEST TRIPURA","Latitude":"23.899682","Longitude":"91.4048249","Volume":"0.42"},
{"Product":"NFS","Year":"2021","Month":"June","State":"Tripura","District":"North Tripura","Latitude":"24.0797139","Longitude":"92.2630393","Volume":"0.14"},
{"Product":"NFS","Year":"2021","Month":"June","State":"Tripura","District":"South Tripura","Latitude":"23.2317493","Longitude":"91.5596116999999","Volume":"0.12"},
{"Product":"NFS","Year":"2021","Month":"June","State":"Tripura","District":"Dhalai","Latitude":"23.8466982","Longitude":"91.9099238","Volume":"0.06"},
{"Product":"NFS","Year":"2021","Month":"June","State":"Uttar Pradesh","District":"Lucknow","Latitude":"26.8466937","Longitude":"80.9461659999999","Volume":"2.33"},
{"Product":"NFS","Year":"2021","Month":"June","State":"Uttar Pradesh","District":"Ghaziabad","Latitude":"28.6691565","Longitude":"77.4537577999999","Volume":"1.83"},
{"Product":"NFS","Year":"2021","Month":"June","State":"Uttar Pradesh","District":"Gautam Buddha Nagar","Latitude":"28.358983","Longitude":"77.5507619999999","Volume":"1.77"},
{"Product":"NFS","Year":"2021","Month":"June","State":"Uttar Pradesh","District":"Varanasi","Latitude":"25.3176452","Longitude":"82.9739144","Volume":"1.3"},
{"Product":"NFS","Year":"2021","Month":"June","State":"Uttar Pradesh","District":"Gorakhpur","Latitude":"26.7605545","Longitude":"83.3731675","Volume":"1.27"},
{"Product":"NFS","Year":"2021","Month":"June","State":"Uttar Pradesh","District":"Rest of locations","Latitude":"26.8467088","Longitude":"80.9461592","Volume":"23.34"},
{"Product":"NFS","Year":"2021","Month":"June","State":"Uttarakhand","District":"Dehradun","Latitude":"30.3164945","Longitude":"78.0321917999999","Volume":"1.03"},
{"Product":"NFS","Year":"2021","Month":"June","State":"Uttarakhand","District":"Haridwar","Latitude":"29.9456906","Longitude":"78.1642478","Volume":"0.74"},
{"Product":"NFS","Year":"2021","Month":"June","State":"Uttarakhand","District":"Udham Singh Nagar","Latitude":"28.9609653","Longitude":"79.5153773","Volume":"0.72"},
{"Product":"NFS","Year":"2021","Month":"June","State":"Uttarakhand","District":"Nainital","Latitude":"29.3919202","Longitude":"79.4542033","Volume":"0.33"},
{"Product":"NFS","Year":"2021","Month":"June","State":"Uttarakhand","District":"Almora","Latitude":"29.5892407","Longitude":"79.646666","Volume":"0.17"},
{"Product":"NFS","Year":"2021","Month":"June","State":"Uttarakhand","District":"Rest of locations","Latitude":"29.7621229","Longitude":"78.8002616","Volume":"0.56"},
{"Product":"NFS","Year":"2021","Month":"June","State":"West Bengal","District":"Kolkata","Latitude":"22.572646","Longitude":"88.363895","Volume":"2.62"},
{"Product":"NFS","Year":"2021","Month":"June","State":"West Bengal","District":"North 24 Parganas","Latitude":"22.6168099","Longitude":"88.402895","Volume":"2.31"},
{"Product":"NFS","Year":"2021","Month":"June","State":"West Bengal","District":"Bardhaman","Latitude":"23.2324214","Longitude":"87.8614793","Volume":"1.46"},
{"Product":"NFS","Year":"2021","Month":"June","State":"West Bengal","District":"South 24 Parganas","Latitude":"22.1352378","Longitude":"88.4016041","Volume":"1.28"},
{"Product":"NFS","Year":"2021","Month":"June","State":"West Bengal","District":"Howrah","Latitude":"22.5957689","Longitude":"88.2636394","Volume":"1.23"},
{"Product":"NFS","Year":"2021","Month":"June","State":"West Bengal","District":"Rest of locations","Latitude":"22.6434952","Longitude":"88.4220856","Volume":"8.25"},
{"Product":"NFS","Year":"2021","Month":"June","State":"OTHERS*","District":"OTHERS*","Latitude":"19.7899888","Longitude":"72.1001898","Volume":"1.94"},
{"Product":"NFS","Year":"2021","Month":"April","State":"Andaman & Nicobar Islands","District":"South Andaman","Latitude":"11.8311681","Longitude":"92.6586401","Volume":"0.16"},
{"Product":"NFS","Year":"2021","Month":"April","State":"Andaman & Nicobar Islands","District":"North And Middle Andaman","Latitude":"12.6518832","Longitude":"92.8976254","Volume":"0.02"},
{"Product":"NFS","Year":"2021","Month":"April","State":"Andhra Pradesh","District":"Visakhapatnam","Latitude":"17.6868159","Longitude":"83.2184815","Volume":"2.67"},
{"Product":"NFS","Year":"2021","Month":"April","State":"Andhra Pradesh","District":"Chittoor","Latitude":"13.217176","Longitude":"79.1003289","Volume":"1.98"},
{"Product":"NFS","Year":"2021","Month":"April","State":"Andhra Pradesh","District":"Krishna","Latitude":"16.6099914","Longitude":"80.7214417","Volume":"1.95"},
{"Product":"NFS","Year":"2021","Month":"April","State":"Andhra Pradesh","District":"East Godavari","Latitude":"17.32125","Longitude":"82.0407137","Volume":"1.78"},
{"Product":"NFS","Year":"2021","Month":"April","State":"Andhra Pradesh","District":"Guntur","Latitude":"16.3066525","Longitude":"80.4365402","Volume":"1.66"},
{"Product":"NFS","Year":"2021","Month":"April","State":"Andhra Pradesh","District":"Rest of Locations","Latitude":"15.9128998","Longitude":"79.7399875","Volume":"7.99"},
{"Product":"NFS","Year":"2021","Month":"April","State":"Arunachal Pradesh","District":"Papum Pare","Latitude":"27.1719019","Longitude":"93.7029002","Volume":"0.14"},
{"Product":"NFS","Year":"2021","Month":"April","State":"Arunachal Pradesh","District":"Lower Subansiri","Latitude":"27.6169349","Longitude":"93.8391556999999","Volume":"0.04"},
{"Product":"NFS","Year":"2021","Month":"April","State":"Arunachal Pradesh","District":"East Siang","Latitude":"28.1097051","Longitude":"95.1432068","Volume":"0.03"},
{"Product":"NFS","Year":"2021","Month":"April","State":"Arunachal Pradesh","District":"Lohit","Latitude":"27.9039651","Longitude":"96.1739116","Volume":"0.03"},
{"Product":"NFS","Year":"2021","Month":"April","State":"Arunachal Pradesh","District":"Upper Subansiri","Latitude":"27.786802","Longitude":"94.3359634999999","Volume":"0.02"},
{"Product":"NFS","Year":"2021","Month":"April","State":"Arunachal Pradesh","District":"Rest of Locations","Latitude":"28.2179994","Longitude":"94.7277528","Volume":"0.09"},
{"Product":"NFS","Year":"2021","Month":"April","State":"Assam","District":"Kamrup","Latitude":"26.3160819","Longitude":"91.5983959","Volume":"1.77"},
{"Product":"NFS","Year":"2021","Month":"April","State":"Assam","District":"Cachar","Latitude":"24.7821253","Longitude":"92.8577105","Volume":"0.50"},
{"Product":"NFS","Year":"2021","Month":"April","State":"Assam","District":"Dibrugarh","Latitude":"27.4728327","Longitude":"94.9119621","Volume":"0.43"},
{"Product":"NFS","Year":"2021","Month":"April","State":"Assam","District":"Sonitpur","Latitude":"26.6738851","Longitude":"92.8577105","Volume":"0.42"},
{"Product":"NFS","Year":"2021","Month":"April","State":"Assam","District":"Tinsukia","Latitude":"27.4885539","Longitude":"95.355758","Volume":"0.36"},
{"Product":"NFS","Year":"2021","Month":"April","State":"Assam","District":"Rest of Locations","Latitude":"26.49462","Longitude":"92.894335","Volume":"3.79"},
{"Product":"NFS","Year":"2021","Month":"April","State":"Bihar","District":"Patna","Latitude":"25.5940947","Longitude":"85.1375645","Volume":"2.07"},
{"Product":"NFS","Year":"2021","Month":"April","State":"Bihar","District":"Muzaffarpur","Latitude":"26.1196607","Longitude":"85.390982","Volume":"0.84"},
{"Product":"NFS","Year":"2021","Month":"April","State":"Bihar","District":"West Champaran","Latitude":"27.1543104","Longitude":"84.3542049","Volume":"0.65"},
{"Product":"NFS","Year":"2021","Month":"April","State":"Bihar","District":"East Champaran","Latitude":"26.6098139","Longitude":"84.8567932","Volume":"0.65"},
{"Product":"NFS","Year":"2021","Month":"April","State":"Bihar","District":"Saran","Latitude":"25.8559698","Longitude":"84.8567932","Volume":"0.61"},
{"Product":"NFS","Year":"2021","Month":"April","State":"Bihar","District":"Rest of Locations","Latitude":"24.8455266","Longitude":"85.1476264","Volume":"9.97"},
{"Product":"NFS","Year":"2021","Month":"April","State":"Chandigarh","District":"Chandigarh","Latitude":"30.7333148","Longitude":"76.7794179","Volume":"0.91"},
{"Product":"NFS","Year":"2021","Month":"April","State":"Chattisgarh","District":"Raipur","Latitude":"21.2513844","Longitude":"81.6296413","Volume":"1.05"},
{"Product":"NFS","Year":"2021","Month":"April","State":"Chattisgarh","District":"Durg","Latitude":"21.1904494","Longitude":"81.2849169","Volume":"0.68"},
{"Product":"NFS","Year":"2021","Month":"April","State":"Chattisgarh","District":"Bilaspur(CGH)","Latitude":"22.070343","Longitude":"82.1377574","Volume":"0.44"},
{"Product":"NFS","Year":"2021","Month":"April","State":"Chattisgarh","District":"Rajnandgaon","Latitude":"21.0976046","Longitude":"81.0337066","Volume":"0.28"},
{"Product":"NFS","Year":"2021","Month":"April","State":"Chattisgarh","District":"Raigarh","Latitude":"21.8974003","Longitude":"83.3949631999999","Volume":"0.24"},
{"Product":"NFS","Year":"2021","Month":"April","State":"Chattisgarh","District":"Rest of Locations","Latitude":"21.2786567","Longitude":"81.8661442","Volume":"1.64"},
{"Product":"NFS","Year":"2021","Month":"April","State":"Dadra & Nagar Haveli","District":"Dadra & Nagar Haveli","Latitude":"20.1808672","Longitude":"73.0169135","Volume":"0.05"},
{"Product":"NFS","Year":"2021","Month":"April","State":"Daman & Diu","District":"Daman","Latitude":"20.3973736","Longitude":"72.8327991","Volume":"0.21"},
{"Product":"NFS","Year":"2021","Month":"April","State":"Daman & Diu","District":"Diu","Latitude":"20.7144094","Longitude":"70.9873719","Volume":"0.01"},
{"Product":"NFS","Year":"2021","Month":"April","State":"Delhi","District":"South West Delhi","Latitude":"28.5928929","Longitude":"77.0346163999999","Volume":"1.96"},
{"Product":"NFS","Year":"2021","Month":"April","State":"Delhi","District":"South Delhi","Latitude":"28.4816551","Longitude":"77.1872856999999","Volume":"1.91"},
{"Product":"NFS","Year":"2021","Month":"April","State":"Delhi","District":"West Delhi","Latitude":"28.6663433","Longitude":"77.067959","Volume":"1.68"},
{"Product":"NFS","Year":"2021","Month":"April","State":"Delhi","District":"North West Delhi","Latitude":"28.7186211","Longitude":"77.0685134","Volume":"1.53"},
{"Product":"NFS","Year":"2021","Month":"April","State":"Delhi","District":"East Delhi","Latitude":"28.6279559","Longitude":"77.2956272999999","Volume":"1.33"},
{"Product":"NFS","Year":"2021","Month":"April","State":"Delhi","District":"Rest of Locations","Latitude":"28.580708","Longitude":"77.248559","Volume":"2.59"},
{"Product":"NFS","Year":"2021","Month":"April","State":"Goa","District":"North Goa","Latitude":"15.5163112","Longitude":"73.9830029","Volume":"0.82"},
{"Product":"NFS","Year":"2021","Month":"April","State":"Goa","District":"South Goa","Latitude":"15.11766","Longitude":"74.1239959999999","Volume":"0.79"},
{"Product":"NFS","Year":"2021","Month":"April","State":"Gujarat","District":"Ahmedabad","Latitude":"23.022505","Longitude":"72.5713621","Volume":"3.72"},
{"Product":"NFS","Year":"2021","Month":"April","State":"Gujarat","District":"Surat","Latitude":"21.1702401","Longitude":"72.8310607","Volume":"3.22"},
{"Product":"NFS","Year":"2021","Month":"April","State":"Gujarat","District":"Vadodara","Latitude":"22.3071588","Longitude":"73.1812187","Volume":"1.79"},
{"Product":"NFS","Year":"2021","Month":"April","State":"Gujarat","District":"Valsad","Latitude":"20.5992349","Longitude":"72.9342451","Volume":"1.17"},
{"Product":"NFS","Year":"2021","Month":"April","State":"Gujarat","District":"Rajkot","Latitude":"22.3038945","Longitude":"70.8021598999999","Volume":"0.94"},
{"Product":"NFS","Year":"2021","Month":"April","State":"Gujarat","District":"Rest of Locations","Latitude":"21.3163244","Longitude":"72.9223430999999","Volume":"7.34"},
{"Product":"NFS","Year":"2021","Month":"April","State":"Haryana","District":"Gurgaon","Latitude":"28.4594965","Longitude":"77.0266383","Volume":"2.40"},
{"Product":"NFS","Year":"2021","Month":"April","State":"Haryana","District":"Faridabad","Latitude":"28.4089123","Longitude":"77.3177894","Volume":"1.53"},
{"Product":"NFS","Year":"2021","Month":"April","State":"Haryana","District":"Sonipat","Latitude":"28.9930822999999","Longitude":"77.0150735","Volume":"0.54"},
{"Product":"NFS","Year":"2021","Month":"April","State":"Haryana","District":"Karnal","Latitude":"29.6856929","Longitude":"76.9904825","Volume":"0.53"},
{"Product":"NFS","Year":"2021","Month":"April","State":"Haryana","District":"Ambala","Latitude":"30.3752011","Longitude":"76.782122","Volume":"0.49"},
{"Product":"NFS","Year":"2021","Month":"April","State":"Haryana","District":"Rest of Locations","Latitude":"29.1011262","Longitude":"75.8800394","Volume":"4.60"},
{"Product":"NFS","Year":"2021","Month":"April","State":"Himachal Pradesh","District":"Solan","Latitude":"30.9084245","Longitude":"77.0999030999999","Volume":"0.74"},
{"Product":"NFS","Year":"2021","Month":"April","State":"Himachal Pradesh","District":"Kangra","Latitude":"32.0998031","Longitude":"76.2691006","Volume":"0.50"},
{"Product":"NFS","Year":"2021","Month":"April","State":"Himachal Pradesh","District":"Shimla","Latitude":"31.1048145","Longitude":"77.1734032999999","Volume":"0.45"},
{"Product":"NFS","Year":"2021","Month":"April","State":"Himachal Pradesh","District":"Mandi","Latitude":"31.5892006","Longitude":"76.9182096999999","Volume":"0.25"},
{"Product":"NFS","Year":"2021","Month":"April","State":"Himachal Pradesh","District":"Sirmaur","Latitude":"30.5628455","Longitude":"77.4701972","Volume":"0.21"},
{"Product":"NFS","Year":"2021","Month":"April","State":"Himachal Pradesh","District":"Rest of Locations","Latitude":"31.1048294","Longitude":"77.1733900999999","Volume":"0.82"},
{"Product":"NFS","Year":"2021","Month":"April","State":"Jammu & Kashmir","District":"Jammu","Latitude":"33.277839","Longitude":"75.3412178999999","Volume":"1.11"},
{"Product":"NFS","Year":"2021","Month":"April","State":"Jammu & Kashmir","District":"Srinagar","Latitude":"34.0836708","Longitude":"74.7972825","Volume":"0.35"},
{"Product":"NFS","Year":"2021","Month":"April","State":"Jammu & Kashmir","District":"Ananthnag","Latitude":"33.7049708","Longitude":"75.2479061","Volume":"0.24"},
{"Product":"NFS","Year":"2021","Month":"April","State":"Jammu & Kashmir","District":"Udhampur","Latitude":"32.9159847","Longitude":"75.1416173","Volume":"0.20"},
{"Product":"NFS","Year":"2021","Month":"April","State":"Jammu & Kashmir","District":"Kathua","Latitude":"32.3863082","Longitude":"75.5173465","Volume":"0.19"},
{"Product":"NFS","Year":"2021","Month":"April","State":"Jammu & Kashmir","District":"Rest of Locations","Latitude":"33.277839","Longitude":"75.3412178999999","Volume":"0.79"},
{"Product":"NFS","Year":"2021","Month":"April","State":"Jharkhand","District":"Ranchi","Latitude":"23.3440997","Longitude":"85.309562","Volume":"1.08"},
{"Product":"NFS","Year":"2021","Month":"April","State":"Jharkhand","District":"East Singhbhum","Latitude":"22.4866756","Longitude":"86.4996546","Volume":"0.77"},
{"Product":"NFS","Year":"2021","Month":"April","State":"Jharkhand","District":"Dhanbad","Latitude":"23.7956531","Longitude":"86.4303858999999","Volume":"0.62"},
{"Product":"NFS","Year":"2021","Month":"April","State":"Jharkhand","District":"Bokaro","Latitude":"23.6692956","Longitude":"86.151112","Volume":"0.40"},
{"Product":"NFS","Year":"2021","Month":"April","State":"Jharkhand","District":"Hazaribag","Latitude":"23.9924669","Longitude":"85.3636758","Volume":"0.29"},
{"Product":"NFS","Year":"2021","Month":"April","State":"Jharkhand","District":"Rest of Locations","Latitude":"23.9931796","Longitude":"85.361781","Volume":"2.22"},
{"Product":"NFS","Year":"2021","Month":"April","State":"Karnataka","District":"Bangalore","Latitude":"12.9715987","Longitude":"77.5945627","Volume":"10.07"},
{"Product":"NFS","Year":"2021","Month":"April","State":"Karnataka","District":"Belgaum","Latitude":"15.8496953","Longitude":"74.4976741","Volume":"1.60"},
{"Product":"NFS","Year":"2021","Month":"April","State":"Karnataka","District":"Mysore","Latitude":"12.2958104","Longitude":"76.6393805","Volume":"1.39"},
{"Product":"NFS","Year":"2021","Month":"April","State":"Karnataka","District":"Dakshina Kannada","Latitude":"12.8437814","Longitude":"75.2479061","Volume":"1.28"},
{"Product":"NFS","Year":"2021","Month":"April","State":"Karnataka","District":"Dharwad","Latitude":"15.4589236","Longitude":"75.007808","Volume":"0.97"},
{"Product":"NFS","Year":"2021","Month":"April","State":"Karnataka","District":"Rest of Locations","Latitude":"15.2608289","Longitude":"75.3423245","Volume":"13.08"},
{"Product":"NFS","Year":"2021","Month":"April","State":"Kerala","District":"Ernakulam","Latitude":"9.9816358","Longitude":"76.2998842","Volume":"3.00"},
{"Product":"NFS","Year":"2021","Month":"April","State":"Kerala","District":"Thiruvananthapuram","Latitude":"8.5241391","Longitude":"76.9366376","Volume":"2.28"},
{"Product":"NFS","Year":"2021","Month":"April","State":"Kerala","District":"Thrissur","Latitude":"10.5276416","Longitude":"76.2144349","Volume":"2.06"},
{"Product":"NFS","Year":"2021","Month":"April","State":"Kerala","District":"Malappuram","Latitude":"11.0509762","Longitude":"76.0710967","Volume":"1.82"},
{"Product":"NFS","Year":"2021","Month":"April","State":"Kerala","District":"Kozhikode","Latitude":"11.2587531","Longitude":"75.78041","Volume":"1.79"},
{"Product":"NFS","Year":"2021","Month":"April","State":"Kerala","District":"Rest of Locations","Latitude":"11.5577391","Longitude":"76.0429893","Volume":"9.36"},
{"Product":"NFS","Year":"2021","Month":"April","State":"LADAKH","District":"Leh","Latitude":"34.1525864","Longitude":"77.5770534999999","Volume":"0.11"},
{"Product":"NFS","Year":"2021","Month":"April","State":"LADAKH","District":"Kargil","Latitude":"34.5538522","Longitude":"76.1348944","Volume":"0.05"},
{"Product":"NFS","Year":"2021","Month":"April","State":"Lakshadweep","District":"Lakshadweep","Latitude":"10.5593204","Longitude":"72.6358134","Volume":"0.02"},
{"Product":"NFS","Year":"2021","Month":"April","State":"Madhya Pradesh","District":"Indore","Latitude":"22.7195687","Longitude":"75.8577258","Volume":"1.66"},
{"Product":"NFS","Year":"2021","Month":"April","State":"Madhya Pradesh","District":"Bhopal","Latitude":"23.2599333","Longitude":"77.412615","Volume":"1.04"},
{"Product":"NFS","Year":"2021","Month":"April","State":"Madhya Pradesh","District":"Jabalpur","Latitude":"23.181467","Longitude":"79.9864071","Volume":"0.57"},
{"Product":"NFS","Year":"2021","Month":"April","State":"Madhya Pradesh","District":"Gwalior","Latitude":"26.2182871","Longitude":"78.1828307999999","Volume":"0.55"},
{"Product":"NFS","Year":"2021","Month":"April","State":"Madhya Pradesh","District":"Dhar","Latitude":"22.6012922","Longitude":"75.3024655","Volume":"0.51"},
{"Product":"NFS","Year":"2021","Month":"April","State":"Madhya Pradesh","District":"Rest of Locations","Latitude":"22.9734229","Longitude":"78.6568942","Volume":"7.51"},
{"Product":"NFS","Year":"2021","Month":"April","State":"Maharashtra","District":"Thane","Latitude":"19.2183307","Longitude":"72.9780897","Volume":"11.75"},
{"Product":"NFS","Year":"2021","Month":"April","State":"Maharashtra","District":"Mumbai","Latitude":"19.0759837","Longitude":"72.8776559","Volume":"8.07"},
{"Product":"NFS","Year":"2021","Month":"April","State":"Maharashtra","District":"Pune","Latitude":"18.5204303","Longitude":"73.8567437","Volume":"7.49"},
{"Product":"NFS","Year":"2021","Month":"April","State":"Maharashtra","District":"Nagpur","Latitude":"21.1458004","Longitude":"79.0881546","Volume":"2.18"},
{"Product":"NFS","Year":"2021","Month":"April","State":"Maharashtra","District":"Nashik","Latitude":"19.9974533","Longitude":"73.7898022999999","Volume":"1.79"},
{"Product":"NFS","Year":"2021","Month":"April","State":"Maharashtra","District":"Rest of Locations","Latitude":"18.7313741","Longitude":"76.3854231999999","Volume":"17.12"},
{"Product":"NFS","Year":"2021","Month":"April","State":"Manipur","District":"Imphal West","Latitude":"24.7827837","Longitude":"93.8858954999999","Volume":"0.34"},
{"Product":"NFS","Year":"2021","Month":"April","State":"Manipur","District":"Thoubal","Latitude":"24.6449243","Longitude":"93.99929","Volume":"0.11"},
{"Product":"NFS","Year":"2021","Month":"April","State":"Manipur","District":"Churachandpur","Latitude":"24.3427485","Longitude":"93.6978264","Volume":"0.07"},
{"Product":"NFS","Year":"2021","Month":"April","State":"Manipur","District":"Imphal East","Latitude":"24.7806536","Longitude":"93.9674371","Volume":"0.07"},
{"Product":"NFS","Year":"2021","Month":"April","State":"Manipur","District":"Bishnupur","Latitude":"24.6303603","Longitude":"93.7598288","Volume":"0.05"},
{"Product":"NFS","Year":"2021","Month":"April","State":"Manipur","District":"Rest of Locations","Latitude":"25.0147934","Longitude":"94.3108908999999","Volume":"0.07"},
{"Product":"NFS","Year":"2021","Month":"April","State":"Meghalaya","District":"East Khasi Hills","Latitude":"25.3681768","Longitude":"91.7538817","Volume":"0.32"},
{"Product":"NFS","Year":"2021","Month":"April","State":"Meghalaya","District":"Jaintia Hills","Latitude":"25.5021272","Longitude":"92.341887","Volume":"0.08"},
{"Product":"NFS","Year":"2021","Month":"April","State":"Meghalaya","District":"West Garo Hills","Latitude":"25.5679372","Longitude":"90.2244662","Volume":"0.07"},
{"Product":"NFS","Year":"2021","Month":"April","State":"Meghalaya","District":"Ri Bhoi","Latitude":"25.8431574","Longitude":"91.985621","Volume":"0.05"},
{"Product":"NFS","Year":"2021","Month":"April","State":"Meghalaya","District":"West Khasi Hills","Latitude":"25.5624625","Longitude":"91.2891035999999","Volume":"0.04"},
{"Product":"NFS","Year":"2021","Month":"April","State":"Meghalaya","District":"Rest of Locations","Latitude":"25.8718992","Longitude":"92.2585399","Volume":"0.02"},
{"Product":"NFS","Year":"2021","Month":"April","State":"Mizoram","District":"Aizawl","Latitude":"23.7307175","Longitude":"92.7173105999999","Volume":"0.27"},
{"Product":"NFS","Year":"2021","Month":"April","State":"Mizoram","District":"Lunglei","Latitude":"22.8670691","Longitude":"92.7655358","Volume":"0.05"},
{"Product":"NFS","Year":"2021","Month":"April","State":"Mizoram","District":"Kolasib","Latitude":"24.224565","Longitude":"92.6760250999999","Volume":"0.03"},
{"Product":"NFS","Year":"2021","Month":"April","State":"Mizoram","District":"Champhai","Latitude":"23.4565708","Longitude":"93.3281928999999","Volume":"0.02"},
{"Product":"NFS","Year":"2021","Month":"April","State":"Mizoram","District":"Serchhip","Latitude":"23.3416578","Longitude":"92.8502302","Volume":"0.02"},
{"Product":"NFS","Year":"2021","Month":"April","State":"Mizoram","District":"Rest of Locations","Latitude":"22.8893827","Longitude":"92.7464487","Volume":"0.04"},
{"Product":"NFS","Year":"2021","Month":"April","State":"Nagaland","District":"Dimapur","Latitude":"25.9091406","Longitude":"93.7265604999999","Volume":"0.21"},
{"Product":"NFS","Year":"2021","Month":"April","State":"Nagaland","District":"Kohima","Latitude":"25.6751129","Longitude":"94.1085998","Volume":"0.12"},
{"Product":"NFS","Year":"2021","Month":"April","State":"Nagaland","District":"Mokokchung","Latitude":"26.3220358","Longitude":"94.5134629","Volume":"0.02"},
{"Product":"NFS","Year":"2021","Month":"April","State":"Nagaland","District":"Wokha","Latitude":"26.0910351","Longitude":"94.2589737999999","Volume":"0.02"},
{"Product":"NFS","Year":"2021","Month":"April","State":"Nagaland","District":"Mon","Latitude":"26.8038362","Longitude":"94.976654","Volume":"0.02"},
{"Product":"NFS","Year":"2021","Month":"April","State":"Nagaland","District":"Rest of Locations","Latitude":"26.1584354","Longitude":"94.5624426","Volume":"0.03"},
{"Product":"NFS","Year":"2021","Month":"April","State":"Odisha","District":"Khorda","Latitude":"20.130141","Longitude":"85.4788064999999","Volume":"1.69"},
{"Product":"NFS","Year":"2021","Month":"April","State":"Odisha","District":"Cuttack","Latitude":"20.462521","Longitude":"85.8829895","Volume":"0.96"},
{"Product":"NFS","Year":"2021","Month":"April","State":"Odisha","District":"Ganjam","Latitude":"19.387389","Longitude":"85.0515413","Volume":"0.85"},
{"Product":"NFS","Year":"2021","Month":"April","State":"Odisha","District":"Baleswar","Latitude":"21.4933578","Longitude":"86.9134794","Volume":"0.77"},
{"Product":"NFS","Year":"2021","Month":"April","State":"Odisha","District":"Jajapur","Latitude":"20.8341019","Longitude":"86.3326058","Volume":"0.62"},
{"Product":"NFS","Year":"2021","Month":"April","State":"Odisha","District":"Rest of Locations","Latitude":"20.7809873","Longitude":"86.576031","Volume":"6.75"},
{"Product":"NFS","Year":"2021","Month":"April","State":"Pondicherry","District":"Pondicherry","Latitude":"11.9415915","Longitude":"79.8083133","Volume":"0.80"},
{"Product":"NFS","Year":"2021","Month":"April","State":"Pondicherry","District":"Karaikal","Latitude":"10.9254398","Longitude":"79.8380056","Volume":"0.17"},
{"Product":"NFS","Year":"2021","Month":"April","State":"Punjab","District":"Ludhiana","Latitude":"30.900965","Longitude":"75.8572758","Volume":"2.07"},
{"Product":"NFS","Year":"2021","Month":"April","State":"Punjab","District":"Amritsar","Latitude":"31.6339793","Longitude":"74.8722642","Volume":"1.10"},
{"Product":"NFS","Year":"2021","Month":"April","State":"Punjab","District":"Jalandhar","Latitude":"31.3260152","Longitude":"75.5761828999999","Volume":"1.07"},
{"Product":"NFS","Year":"2021","Month":"April","State":"Punjab","District":"Patiala","Latitude":"30.3397809","Longitude":"76.3868797","Volume":"0.88"},
{"Product":"NFS","Year":"2021","Month":"April","State":"Punjab","District":"Rupnagar","Latitude":"30.9661003","Longitude":"76.5230961","Volume":"0.88"},
{"Product":"NFS","Year":"2021","Month":"April","State":"Punjab","District":"Rest of Locations","Latitude":"30.7529521","Longitude":"77.4089185","Volume":"4.80"},
{"Product":"NFS","Year":"2021","Month":"April","State":"Rajasthan","District":"Jaipur","Latitude":"26.9124336","Longitude":"75.7872709","Volume":"2.49"},
{"Product":"NFS","Year":"2021","Month":"April","State":"Rajasthan","District":"Alwar","Latitude":"27.5529907","Longitude":"76.6345735","Volume":"0.86"},
{"Product":"NFS","Year":"2021","Month":"April","State":"Rajasthan","District":"Jodhpur","Latitude":"26.2389469","Longitude":"73.0243093999999","Volume":"0.81"},
{"Product":"NFS","Year":"2021","Month":"April","State":"Rajasthan","District":"Ajmer","Latitude":"26.4498954","Longitude":"74.6399163","Volume":"0.66"},
{"Product":"NFS","Year":"2021","Month":"April","State":"Rajasthan","District":"Udaipur","Latitude":"24.585445","Longitude":"73.712479","Volume":"0.63"},
{"Product":"NFS","Year":"2021","Month":"April","State":"Rajasthan","District":"Rest of Locations","Latitude":"28.2114731","Longitude":"76.8553251","Volume":"7.28"},
{"Product":"NFS","Year":"2021","Month":"April","State":"Sikkim","District":"East Sikkim","Latitude":"27.3083637","Longitude":"88.6723578","Volume":"0.33"},
{"Product":"NFS","Year":"2021","Month":"April","State":"Sikkim","District":"West Sikkim","Latitude":"27.3031986","Longitude":"88.2071598","Volume":"0.06"},
{"Product":"NFS","Year":"2021","Month":"April","State":"Sikkim","District":"South Sikkim","Latitude":"27.28584","Longitude":"88.3945669","Volume":"0.05"},
{"Product":"NFS","Year":"2021","Month":"April","State":"Sikkim","District":"North Sikkim","Latitude":"27.8236356","Longitude":"88.5565309999999","Volume":"0.01"},
{"Product":"NFS","Year":"2021","Month":"April","State":"Tamil Nadu","District":"Coimbatore","Latitude":"11.0168445","Longitude":"76.9558321","Volume":"5.96"},
{"Product":"NFS","Year":"2021","Month":"April","State":"Tamil Nadu","District":"Kanchipuram","Latitude":"12.818456","Longitude":"79.6946586","Volume":"5.92"},
{"Product":"NFS","Year":"2021","Month":"April","State":"Tamil Nadu","District":"Chennai","Latitude":"13.0826802","Longitude":"80.2707184","Volume":"5.10"},
{"Product":"NFS","Year":"2021","Month":"April","State":"Tamil Nadu","District":"Tiruvallur","Latitude":"13.1230558","Longitude":"79.9119526","Volume":"3.90"},
{"Product":"NFS","Year":"2021","Month":"April","State":"Tamil Nadu","District":"Vellore","Latitude":"12.9165167","Longitude":"79.1324985999999","Volume":"2.59"},
{"Product":"NFS","Year":"2021","Month":"April","State":"Tamil Nadu","District":"Rest of Locations","Latitude":"10.9995713","Longitude":"77.0439323","Volume":"30.27"},
{"Product":"NFS","Year":"2021","Month":"April","State":"Telangana","District":"HYDERABAD","Latitude":"17.385044","Longitude":"78.486671","Volume":"5.82"},
{"Product":"NFS","Year":"2021","Month":"April","State":"Telangana","District":"K.V.RANGAREDDY","Latitude":"17.3891379","Longitude":"77.8367282","Volume":"3.21"},
{"Product":"NFS","Year":"2021","Month":"April","State":"Telangana","District":"Karim Nagar","Latitude":"18.4385553","Longitude":"79.1288412","Volume":"1.35"},
{"Product":"NFS","Year":"2021","Month":"April","State":"Telangana","District":"Medak","Latitude":"18.0529357","Longitude":"78.261853","Volume":"1.19"},
{"Product":"NFS","Year":"2021","Month":"April","State":"Telangana","District":"Warangal","Latitude":"17.9689008","Longitude":"79.5940543999999","Volume":"0.93"},
{"Product":"NFS","Year":"2021","Month":"April","State":"Telangana","District":"Rest of Locations","Latitude":"18.1124372","Longitude":"79.0192996999999","Volume":"3.91"},
{"Product":"NFS","Year":"2021","Month":"April","State":"Tripura","District":"WEST TRIPURA","Latitude":"23.899682","Longitude":"91.4048249","Volume":"0.53"},
{"Product":"NFS","Year":"2021","Month":"April","State":"Tripura","District":"North Tripura","Latitude":"24.0797139","Longitude":"92.2630393","Volume":"0.15"},
{"Product":"NFS","Year":"2021","Month":"April","State":"Tripura","District":"South Tripura","Latitude":"23.2317493","Longitude":"91.5596116999999","Volume":"0.14"},
{"Product":"NFS","Year":"2021","Month":"April","State":"Tripura","District":"Dhalai","Latitude":"23.8466982","Longitude":"91.9099238","Volume":"0.05"},
{"Product":"NFS","Year":"2021","Month":"April","State":"Uttar Pradesh","District":"Lucknow","Latitude":"26.8466937","Longitude":"80.9461659999999","Volume":"2.44"},
{"Product":"NFS","Year":"2021","Month":"April","State":"Uttar Pradesh","District":"Ghaziabad","Latitude":"28.6691565","Longitude":"77.4537577999999","Volume":"2.10"},
{"Product":"NFS","Year":"2021","Month":"April","State":"Uttar Pradesh","District":"Gautam Buddha Nagar","Latitude":"28.358983","Longitude":"77.5507619999999","Volume":"2.04"},
{"Product":"NFS","Year":"2021","Month":"April","State":"Uttar Pradesh","District":"Varanasi","Latitude":"25.3176452","Longitude":"82.9739144","Volume":"1.36"},
{"Product":"NFS","Year":"2021","Month":"April","State":"Uttar Pradesh","District":"Gorakhpur","Latitude":"26.7605545","Longitude":"83.3731675","Volume":"1.36"},
{"Product":"NFS","Year":"2021","Month":"April","State":"Uttar Pradesh","District":"Rest of Locations","Latitude":"26.8467088","Longitude":"80.9461592","Volume":"24.87"},
{"Product":"NFS","Year":"2021","Month":"April","State":"Uttarakhand","District":"Dehradun","Latitude":"30.3164945","Longitude":"78.0321917999999","Volume":"1.30"},
{"Product":"NFS","Year":"2021","Month":"April","State":"Uttarakhand","District":"Haridwar","Latitude":"29.9456906","Longitude":"78.1642478","Volume":"0.80"},
{"Product":"NFS","Year":"2021","Month":"April","State":"Uttarakhand","District":"Udham Singh Nagar","Latitude":"28.9609653","Longitude":"79.5153773","Volume":"0.79"},
{"Product":"NFS","Year":"2021","Month":"April","State":"Uttarakhand","District":"Nainital","Latitude":"29.3919202","Longitude":"79.4542033","Volume":"0.40"},
{"Product":"NFS","Year":"2021","Month":"April","State":"Uttarakhand","District":"Almora","Latitude":"29.5892407","Longitude":"79.646666","Volume":"0.20"},
{"Product":"NFS","Year":"2021","Month":"April","State":"Uttarakhand","District":"Rest of Locations","Latitude":"29.7621229","Longitude":"78.8002616","Volume":"0.69"},
{"Product":"NFS","Year":"2021","Month":"April","State":"West Bengal","District":"Kolkata","Latitude":"22.572646","Longitude":"88.363895","Volume":"3.59"},
{"Product":"NFS","Year":"2021","Month":"April","State":"West Bengal","District":"North 24 Parganas","Latitude":"22.6168099","Longitude":"88.402895","Volume":"2.79"},
{"Product":"NFS","Year":"2021","Month":"April","State":"West Bengal","District":"Bardhaman","Latitude":"23.2324214","Longitude":"87.8614793","Volume":"1.66"},
{"Product":"NFS","Year":"2021","Month":"April","State":"West Bengal","District":"South 24 Parganas","Latitude":"22.1352378","Longitude":"88.4016041","Volume":"1.46"},
{"Product":"NFS","Year":"2021","Month":"April","State":"West Bengal","District":"Howrah","Latitude":"22.5957689","Longitude":"88.2636394","Volume":"1.43"},
{"Product":"NFS","Year":"2021","Month":"April","State":"West Bengal","District":"Rest of Locations","Latitude":"22.6434952","Longitude":"88.4220856","Volume":"9.53"},
{"Product":"NFS","Year":"2021","Month":"April","State":"Others","District":"Others","Latitude":"19.1136444","Longitude":"72.8609791","Volume":"1.49"},
{"Product":"NFS","Year":"2021","Month":"May","State":"Andaman & Nicobar Islands","District":"South Andaman","Latitude":"11.8311681","Longitude":"92.6586401","Volume":"0.09"},
{"Product":"NFS","Year":"2021","Month":"May","State":"Andaman & Nicobar Islands","District":"North And Middle Andaman","Latitude":"12.6518832","Longitude":"92.8976254","Volume":"0.01"},
{"Product":"NFS","Year":"2021","Month":"May","State":"Andhra Pradesh","District":"Visakhapatnam","Latitude":"17.6868159","Longitude":"83.2184815","Volume":"2.11"},
{"Product":"NFS","Year":"2021","Month":"May","State":"Andhra Pradesh","District":"Chittoor","Latitude":"13.217176","Longitude":"79.1003289","Volume":"1.68"},
{"Product":"NFS","Year":"2021","Month":"May","State":"Andhra Pradesh","District":"Krishna","Latitude":"16.6099914","Longitude":"80.7214417","Volume":"1.63"},
{"Product":"NFS","Year":"2021","Month":"May","State":"Andhra Pradesh","District":"East Godavari","Latitude":"17.32125","Longitude":"82.0407137","Volume":"1.56"},
{"Product":"NFS","Year":"2021","Month":"May","State":"Andhra Pradesh","District":"Guntur","Latitude":"16.3066525","Longitude":"80.4365402","Volume":"1.49"},
{"Product":"NFS","Year":"2021","Month":"May","State":"Andhra Pradesh","District":"Rest of Loacations","Latitude":"15.9128998","Longitude":"79.7399875","Volume":"7.33"},
{"Product":"NFS","Year":"2021","Month":"May","State":"Arunachal Pradesh","District":"Papum Pare","Latitude":"27.1719019","Longitude":"93.7029002","Volume":"0.08"},
{"Product":"NFS","Year":"2021","Month":"May","State":"Arunachal Pradesh","District":"East Siang","Latitude":"28.1097051","Longitude":"95.1432068","Volume":"0.03"},
{"Product":"NFS","Year":"2021","Month":"May","State":"Arunachal Pradesh","District":"Lower Subansiri","Latitude":"27.6169349","Longitude":"93.8391556999999","Volume":"0.02"},
{"Product":"NFS","Year":"2021","Month":"May","State":"Arunachal Pradesh","District":"Lohit","Latitude":"27.9039651","Longitude":"96.1739116","Volume":"0.02"},
{"Product":"NFS","Year":"2021","Month":"May","State":"Arunachal Pradesh","District":"West Siang","Latitude":"28.147254","Longitude":"94.7484518","Volume":"0.02"},
{"Product":"NFS","Year":"2021","Month":"May","State":"Arunachal Pradesh","District":"Rest of Loacations","Latitude":"28.2179994","Longitude":"94.7277528","Volume":"0.07"},
{"Product":"NFS","Year":"2021","Month":"May","State":"Assam","District":"Kamrup","Latitude":"26.3160819","Longitude":"91.5983959","Volume":"1.27"},
{"Product":"NFS","Year":"2021","Month":"May","State":"Assam","District":"Cachar","Latitude":"24.7821253","Longitude":"92.8577105","Volume":"0.41"},
{"Product":"NFS","Year":"2021","Month":"May","State":"Assam","District":"Sonitpur","Latitude":"26.6738851","Longitude":"92.8577105","Volume":"0.34"},
{"Product":"NFS","Year":"2021","Month":"May","State":"Assam","District":"Dibrugarh","Latitude":"27.4728327","Longitude":"94.9119621","Volume":"0.32"},
{"Product":"NFS","Year":"2021","Month":"May","State":"Assam","District":"Nagaon","Latitude":"26.348009","Longitude":"92.6838111","Volume":"0.28"},
{"Product":"NFS","Year":"2021","Month":"May","State":"Assam","District":"Rest of Loacations","Latitude":"26.2006043","Longitude":"92.9375739","Volume":"3.22"},
{"Product":"NFS","Year":"2021","Month":"May","State":"Bihar","District":"Patna","Latitude":"25.5940947","Longitude":"85.1375645","Volume":"1.45"},
{"Product":"NFS","Year":"2021","Month":"May","State":"Bihar","District":"Muzaffarpur","Latitude":"26.1196607","Longitude":"85.390982","Volume":"0.76"},
{"Product":"NFS","Year":"2021","Month":"May","State":"Bihar","District":"Saran","Latitude":"25.8559698","Longitude":"84.8567932","Volume":"0.65"},
{"Product":"NFS","Year":"2021","Month":"May","State":"Bihar","District":"West Champaran","Latitude":"27.1543104","Longitude":"84.3542049","Volume":"0.63"},
{"Product":"NFS","Year":"2021","Month":"May","State":"Bihar","District":"East Champaran","Latitude":"26.6098139","Longitude":"84.8567932","Volume":"0.61"},
{"Product":"NFS","Year":"2021","Month":"May","State":"Bihar","District":"Rest of Loacations","Latitude":"25.0960742","Longitude":"85.3131193999999","Volume":"9.03"},
{"Product":"NFS","Year":"2021","Month":"May","State":"Chandigarh","District":"Chandigarh","Latitude":"30.7333148","Longitude":"76.7794179","Volume":"0.66"},
{"Product":"NFS","Year":"2021","Month":"May","State":"Chattisgarh","District":"Raipur","Latitude":"21.2513844","Longitude":"81.6296413","Volume":"1.25"},
{"Product":"NFS","Year":"2021","Month":"May","State":"Chattisgarh","District":"Durg","Latitude":"21.1904494","Longitude":"81.2849169","Volume":"0.86"},
{"Product":"NFS","Year":"2021","Month":"May","State":"Chattisgarh","District":"Bilaspur(CGH)","Latitude":"22.070343","Longitude":"82.1377574","Volume":"0.44"},
{"Product":"NFS","Year":"2021","Month":"May","State":"Chattisgarh","District":"Rajnandgaon","Latitude":"21.0976046","Longitude":"81.0337066","Volume":"0.39"},
{"Product":"NFS","Year":"2021","Month":"May","State":"Chattisgarh","District":"Janjgir-champa","Latitude":"21.9705529","Longitude":"82.4752757","Volume":"0.25"},
{"Product":"NFS","Year":"2021","Month":"May","State":"Chattisgarh","District":"Rest of Loacations","Latitude":"21.2786567","Longitude":"81.8661442","Volume":"1.74"},
{"Product":"NFS","Year":"2021","Month":"May","State":"Dadra & Nagar Haveli","District":"Dadra & Nagar Haveli","Latitude":"20.1808672","Longitude":"73.0169135","Volume":"0.05"},
{"Product":"NFS","Year":"2021","Month":"May","State":"Daman & Diu","District":"Daman","Latitude":"20.3973736","Longitude":"72.8327991","Volume":"0.18"},
{"Product":"NFS","Year":"2021","Month":"May","State":"Daman & Diu","District":"Diu","Latitude":"20.7144094","Longitude":"70.9873719","Volume":"0.01"},
{"Product":"NFS","Year":"2021","Month":"May","State":"Delhi","District":"South West Delhi","Latitude":"28.5928929","Longitude":"77.0346163999999","Volume":"1.46"},
{"Product":"NFS","Year":"2021","Month":"May","State":"Delhi","District":"South Delhi","Latitude":"28.4816551","Longitude":"77.1872856999999","Volume":"1.43"},
{"Product":"NFS","Year":"2021","Month":"May","State":"Delhi","District":"West Delhi","Latitude":"28.6663433","Longitude":"77.067959","Volume":"1.26"},
{"Product":"NFS","Year":"2021","Month":"May","State":"Delhi","District":"North West Delhi","Latitude":"28.7186211","Longitude":"77.0685134","Volume":"1.15"},
{"Product":"NFS","Year":"2021","Month":"May","State":"Delhi","District":"East Delhi","Latitude":"28.6279559","Longitude":"77.2956272999999","Volume":"0.98"},
{"Product":"NFS","Year":"2021","Month":"May","State":"Delhi","District":"Rest of Loacations","Latitude":"28.7040592","Longitude":"77.1024901999999","Volume":"1.82"},
{"Product":"NFS","Year":"2021","Month":"May","State":"Goa","District":"South Goa","Latitude":"15.11766","Longitude":"74.1239959999999","Volume":"0.55"},
{"Product":"NFS","Year":"2021","Month":"May","State":"Goa","District":"North Goa","Latitude":"15.5163112","Longitude":"73.9830029","Volume":"0.52"},
{"Product":"NFS","Year":"2021","Month":"May","State":"Gujarat","District":"Ahmedabad","Latitude":"23.022505","Longitude":"72.5713621","Volume":"3.27"},
{"Product":"NFS","Year":"2021","Month":"May","State":"Gujarat","District":"Surat","Latitude":"21.1702401","Longitude":"72.8310607","Volume":"2.80"},
{"Product":"NFS","Year":"2021","Month":"May","State":"Gujarat","District":"Vadodara","Latitude":"22.3071588","Longitude":"73.1812187","Volume":"1.62"},
{"Product":"NFS","Year":"2021","Month":"May","State":"Gujarat","District":"Valsad","Latitude":"20.5992349","Longitude":"72.9342451","Volume":"1.06"},
{"Product":"NFS","Year":"2021","Month":"May","State":"Gujarat","District":"Rajkot","Latitude":"22.3038945","Longitude":"70.8021598999999","Volume":"0.88"},
{"Product":"NFS","Year":"2021","Month":"May","State":"Gujarat","District":"Rest of Loacations","Latitude":"22.3163244","Longitude":"72.9223430999999","Volume":"6.85"},
{"Product":"NFS","Year":"2021","Month":"May","State":"Haryana","District":"Gurgaon","Latitude":"28.4594965","Longitude":"77.0266383","Volume":"1.68"},
{"Product":"NFS","Year":"2021","Month":"May","State":"Haryana","District":"Faridabad","Latitude":"28.4089123","Longitude":"77.3177894","Volume":"1.15"},
{"Product":"NFS","Year":"2021","Month":"May","State":"Haryana","District":"Karnal","Latitude":"29.6856929","Longitude":"76.9904825","Volume":"0.42"},
{"Product":"NFS","Year":"2021","Month":"May","State":"Haryana","District":"Sonipat","Latitude":"28.9930822999999","Longitude":"77.0150735","Volume":"0.40"},
{"Product":"NFS","Year":"2021","Month":"May","State":"Haryana","District":"Panipat","Latitude":"29.3909464","Longitude":"76.9635023","Volume":"0.39"},
{"Product":"NFS","Year":"2021","Month":"May","State":"Haryana","District":"Rest of Loacations","Latitude":"29.1011262","Longitude":"75.8800394","Volume":"3.47"},
{"Product":"NFS","Year":"2021","Month":"May","State":"Himachal Pradesh","District":"Solan","Latitude":"30.9084245","Longitude":"77.0999030999999","Volume":"0.57"},
{"Product":"NFS","Year":"2021","Month":"May","State":"Himachal Pradesh","District":"Kangra","Latitude":"32.0998031","Longitude":"76.2691006","Volume":"0.31"},
{"Product":"NFS","Year":"2021","Month":"May","State":"Himachal Pradesh","District":"Shimla","Latitude":"31.1048145","Longitude":"77.1734032999999","Volume":"0.26"},
{"Product":"NFS","Year":"2021","Month":"May","State":"Himachal Pradesh","District":"Mandi","Latitude":"31.5892006","Longitude":"76.9182096999999","Volume":"0.16"},
{"Product":"NFS","Year":"2021","Month":"May","State":"Himachal Pradesh","District":"Sirmaur","Latitude":"30.5628455","Longitude":"77.4701972","Volume":"0.15"},
{"Product":"NFS","Year":"2021","Month":"May","State":"Himachal Pradesh","District":"Rest of Loacations","Latitude":"31.5167233","Longitude":"78.0965119999999","Volume":"0.53"},
{"Product":"NFS","Year":"2021","Month":"May","State":"Jammu & Kashmir","District":"Jammu","Latitude":"33.277839","Longitude":"75.3412178999999","Volume":"0.76"},
{"Product":"NFS","Year":"2021","Month":"May","State":"Jammu & Kashmir","District":"Srinagar","Latitude":"34.0836708","Longitude":"74.7972825","Volume":"0.26"},
{"Product":"NFS","Year":"2021","Month":"May","State":"Jammu & Kashmir","District":"Ananthnag","Latitude":"33.7049708","Longitude":"75.2479061","Volume":"0.19"},
{"Product":"NFS","Year":"2021","Month":"May","State":"Jammu & Kashmir","District":"Kathua","Latitude":"32.3863082","Longitude":"75.5173465","Volume":"0.15"},
{"Product":"NFS","Year":"2021","Month":"May","State":"Jammu & Kashmir","District":"Baramulla","Latitude":"34.1990498","Longitude":"74.3499496","Volume":"0.14"},
{"Product":"NFS","Year":"2021","Month":"May","State":"Jammu & Kashmir","District":"Rest of Loacations","Latitude":"33.277839","Longitude":"75.3412178999999","Volume":"0.61"},
{"Product":"NFS","Year":"2021","Month":"May","State":"Jharkhand","District":"Ranchi","Latitude":"23.3440997","Longitude":"85.309562","Volume":"0.82"},
{"Product":"NFS","Year":"2021","Month":"May","State":"Jharkhand","District":"East Singhbhum","Latitude":"22.4866756","Longitude":"86.4996546","Volume":"0.65"},
{"Product":"NFS","Year":"2021","Month":"May","State":"Jharkhand","District":"Dhanbad","Latitude":"23.7956531","Longitude":"86.4303858999999","Volume":"0.53"},
{"Product":"NFS","Year":"2021","Month":"May","State":"Jharkhand","District":"Bokaro","Latitude":"23.6692956","Longitude":"86.151112","Volume":"0.33"},
{"Product":"NFS","Year":"2021","Month":"May","State":"Jharkhand","District":"Giridh","Latitude":"24.19135","Longitude":"86.2996368","Volume":"0.23"},
{"Product":"NFS","Year":"2021","Month":"May","State":"Jharkhand","District":"Rest of Loacations","Latitude":"23.3487424","Longitude":"85.3602159","Volume":"1.93"},
{"Product":"NFS","Year":"2021","Month":"May","State":"Karnataka","District":"Bangalore","Latitude":"12.9715987","Longitude":"77.5945627","Volume":"6.57"},
{"Product":"NFS","Year":"2021","Month":"May","State":"Karnataka","District":"Belgaum","Latitude":"15.8496953","Longitude":"74.4976741","Volume":"1.13"},
{"Product":"NFS","Year":"2021","Month":"May","State":"Karnataka","District":"Mysore","Latitude":"12.2958104","Longitude":"76.6393805","Volume":"1.00"},
{"Product":"NFS","Year":"2021","Month":"May","State":"Karnataka","District":"Dakshina Kannada","Latitude":"12.8437814","Longitude":"75.2479061","Volume":"0.79"},
{"Product":"NFS","Year":"2021","Month":"May","State":"Karnataka","District":"Hassan","Latitude":"13.0033234","Longitude":"76.1003894","Volume":"0.75"},